time,lat,lon,alt,VN,VE,VD,roll,pitch,heading
354.060995,55.06612678303557,38.10978507968129,614.215652430272,-9.71198252012581,63.0114286643299,3.3833719781512173,-1.45265157638236,7.87649299805203,111.964339857978
354.080996,55.06612478507687,38.10980475701757,614.28327300502,-9.70554239409344,63.0031091914311,3.3810287373967185,-1.40919684976308,7.88896364260359,111.915718642399
354.100995,55.06612278796628,38.10982444291359,614.350808343377,-9.70331963325629,62.9993873159677,3.376766917853047,-1.45997719100756,7.90466235459813,111.869338399748
354.12100000000004,55.06612079011551,38.1098441583923,614.418257997573,-9.68878274926185,62.9776236394188,3.372482709801261,-1.44613503212658,7.87319752402962,111.826132796177
354.14099500000003,55.06611880154465,38.1098638024973,614.485400014433,-9.6797431259914,62.9753846665244,3.357100842998761,-1.4622377335977,7.8966767330175,111.780190111711
354.160996,55.06611681109436,38.10988347947388,614.55281851285,-9.67404307061583,62.9599709457981,3.3709249208470737,-1.48566338138134,7.87601424851636,111.737457711377
354.180994,55.06611482373973,38.10990313418204,614.620553079611,-9.65794830818648,62.9510133376188,3.386728338051625,-1.46950733842868,7.89116754843639,111.691162723728
354.20101800000003,55.06611282535672,38.10992290032826,614.689298028266,-9.654314623833,62.9377452155208,3.437247432748336,-1.55765593615981,7.87992926546757,111.652475449267
354.221003,55.06611084007,38.10994253403948,614.758393576484,-9.62993957521427,62.9245392475257,3.4547774109000784,-1.52845788181675,7.87567144802506,111.612613143249
354.240631,55.06610890394969,38.10996168014337,614.826388918876,-9.62386226459144,62.9079248360348,3.399767119600483,-1.60120587483122,7.88545770506066,111.573032986011
354.261753,55.06610679899385,38.10998249987613,614.900620182909,-9.6019593420964,62.8972797098205,3.711563201653689,-1.55567653694516,7.86343668170349,111.534143676397
354.280995,55.06610488227155,38.11000146650949,614.96815065775,-9.58737886907936,62.8772917995521,3.376523742048221,-1.69124232092091,7.88731750073544,111.497082398559
354.300996,55.06610289497368,38.11002114538003,615.037757903584,-9.57189410219239,62.873037069331,3.4803622916967925,-1.62418860878438,7.87351870837945,111.462169195904
354.321001,55.06610090578986,38.11004086198826,615.106706956079,-9.55711043997165,62.8550111067844,3.4474526247549875,-1.75977680529233,7.87742795499402,111.425841958108
354.340995,55.06609892969911,38.11006047055952,615.174553443433,-9.53515420719936,62.8371214706677,3.3923243676952097,-1.69417160329367,7.85830702319514,111.393094065352
354.360995,55.06609694960292,38.11008014235677,615.242160852106,-9.51174166991337,62.8221273801505,3.380370433654889,-1.83026203225891,7.8638217223806,111.358609403311
354.38099600000004,55.06609497042197,38.11009983030457,615.30963548261,-9.51223332384146,62.8246056791229,3.373731525198309,-1.80397195774222,7.8846489840172,111.325478825612
354.400997,55.06609299567349,38.11011950108936,615.377134014242,-9.47493356631858,62.7936718218979,3.374926581597037,-1.91091888048797,7.86294436171725,111.297837744641
354.420999,55.06609101497639,38.11013925916736,615.445272217842,-9.46712730534176,62.7933262629209,3.4069101800014323,-1.88335674062841,7.89150617226492,111.266957335882
354.440995,55.0660890544192,38.110158837915534,615.513237791281,-9.43117467185469,62.7690562428639,3.3982786719491287,-1.99473092108839,7.85903274422588,111.240535086072
354.460996,55.06608708597204,38.11017850708016,615.581996524153,-9.41650680415534,62.7587851105774,3.437936643604189,-1.96009139179774,7.87290772514743,111.212789757295
354.480996,55.06608511756391,38.11019817743672,615.651271561661,-9.37663218459999,62.7293952432942,3.463751875398202,-2.0685697000813,7.84545677638536,111.192573177862
354.500995,55.06608314835392,38.11021784729184,615.721088697202,-9.34842597657168,62.7095017186545,3.4908567770514765,-2.07357631550803,7.86338786390561,111.168996667867
354.521002,55.06608117422096,38.11023754935433,615.791572336335,-9.31976823927684,62.6877393361718,3.524181956646544,-2.12397950341871,7.84021230444441,111.148673769205
354.541001,55.06607920619665,38.11025718050046,615.862133644282,-9.29931039877738,62.6755798022115,3.528065397352975,-2.15823852568906,7.83967986695309,111.129996225307
354.561758,55.06607716845679,38.11027751269432,615.935202594333,-9.27033062644271,62.653657329794,3.6534475025462143,-2.23141740382189,7.83052925155376,111.113980579727
354.58099500000003,55.06607526782194,38.11029649674302,616.003086848822,-9.24533732525091,62.6384228113443,3.3942127244529274,-2.2258874472626,7.81904260385049,111.101262062406
354.600994,55.066073298755406,38.11031619964656,616.072858613421,-9.22694682646787,62.6301060899255,3.488588229947709,-2.24666933731016,7.82893318979276,111.085372931155
354.621033,55.066071335946674,38.110335888875774,616.141601679547,-9.19379101357473,62.6036179865748,3.4371533062994786,-2.31770081453803,7.79886388291214,111.077311381246
354.64099500000003,55.06606938227037,38.11035552803151,616.209385362341,-9.17200848414554,62.5930187815619,3.389184139700774,-2.30273782733365,7.79978912231271,111.06620635004
354.660996,55.06606742964178,38.1103751799983,616.276877026942,-9.15576167191521,62.5832212966051,3.374583230049666,-2.38873687016302,7.78623644500299,111.062284376587
354.680995,55.066065476338935,38.11039484374356,616.344523364894,-9.12431237024407,62.5666057521539,3.3823168976027773,-2.36261957070378,7.78695585950188,111.053725031047
354.70099500000003,55.06606352161119,38.11041450840148,616.412738340658,-9.10731219875873,62.5502295262829,3.41074878820109,-2.43566642020463,7.77896195851801,111.048858589194
354.720998,55.06606155619957,38.11043425059869,616.48219493866,-9.08676754624079,62.5400226529554,3.4728299000960305,-2.38210064823848,7.76779388667922,111.044591530859
354.741033,55.06605960097525,38.110453863555485,616.55210402706,-9.07277354818404,62.534312470331,3.495454419999078,-2.49466544576472,7.78348528723119,111.043874273924
354.76099500000004,55.06605764267907,38.11047349339408,616.622676184266,-9.0546863528644,62.520801161491,3.528607860300781,-2.44608234997214,7.76560402763027,111.042590719151
354.780996,55.06605568048455,38.11049316134719,616.693684800752,-9.03306614604664,62.512572218091,3.550430824299156,-2.50542796232904,7.78438142280034,111.039361750217
354.800994,55.06605372053688,38.11051281883907,616.764649279517,-9.02544800748155,62.5074072929543,3.548223938253159,-2.47948858491722,7.7632043990934,111.04201057774
354.820685,55.06605179911209,38.11053211365085,616.83402104164,-9.00776062292449,62.4984466923327,3.468588106147763,-2.53479807744262,7.76981367075887,111.043355463743
354.844242,55.06604923512659,38.110557907082686,616.926164233757,-8.99664550302603,62.4955886442871,4.607159605853894,-2.50425495336006,7.77638840005319,111.046453570447
354.860995,55.066047855717855,38.11057180747126,616.975538057949,-8.97344741503986,62.4859812631243,2.468691209600138,-2.49875573008432,7.76513987494008,111.05001066066
354.88099600000004,55.066045906655816,38.11059147880071,617.045069851698,-8.97787077882383,62.4919737088678,3.47658968744895,-2.52637323925072,7.78376131366712,111.053393303895
354.900994,55.06604396368596,38.11061112660816,617.114119211901,-8.95881935323746,62.4781004123929,3.4524680101469585,-2.51608970715301,7.76322600305393,111.062049246592
354.921,55.06604201832718,38.11063083813197,617.183003219072,-8.94977409233904,62.4770990247336,3.444200358552507,-2.51812969661704,7.79701840013826,111.06863331962
354.940995,55.066040085748334,38.11065045081551,617.251284632366,-8.93905637266789,62.4752202587627,3.41407066470083,-2.45810080332787,7.77917783461886,111.079945117667
354.960998,55.06603816171193,38.11066999322298,617.319257408477,-8.92255385097494,62.4653015397163,3.398638805549581,-2.48031550174488,7.79590953141448,111.089097728571
354.980995,55.06603621423234,38.110689776091775,617.388196712151,-8.91732404673431,62.4602988792446,3.4469651836957382,-2.44314940556558,7.79075870553672,111.102209526699
355.000995,55.06603427528484,38.11070946028183,617.457117311663,-8.89432536073526,62.4485468788987,3.446029975600595,-2.47014690173521,7.79768503063487,111.117601378952
355.021001,55.066032336598894,38.11072911673299,617.526437877007,-8.90039602022339,62.4550521021956,3.466028267200727,-2.37381073832683,7.81000108616975,111.130225620684
355.040995,55.06603039804982,38.11074874448807,617.596130397707,-8.87789813591121,62.4429834500035,3.4846260350036573,-2.40700425123743,7.80244060086573,111.146878334818
355.061017,55.0660284489515,38.11076845507744,617.666464820323,-8.88261847481873,62.4436031394686,3.5167211307964408,-2.3516351451715,7.83816103821618,111.161647999121
355.08099300000003,55.06602650884742,38.11078805439193,617.736619562756,-8.86305023621108,62.4322862756316,3.507737121651644,-2.35855831626508,7.82132085118086,111.184997827281
355.101002,55.06602456121343,38.11080771292476,617.807075499092,-8.86864669202549,62.4356585956594,3.5227968167987456,-2.27221662133785,7.85730620549784,111.198928794582
355.1218,55.06602253822321,38.1108281190182,617.880176799172,-8.85198794201542,62.4255158994689,3.65506500399988,-2.300695123853,7.85918333793604,111.221428993464
355.14099400000003,55.066020666055714,38.11084700414785,617.94775477462,-8.85323285095224,62.4242723699054,3.3788987723994524,-2.21549241288552,7.87251476450561,111.24055533947
355.160995,55.06601871847132,38.11086666723185,618.018033691916,-8.85317608530527,62.4316230912356,3.5139458648018262,-2.21144327798336,7.88466443290221,111.263486278512
355.180995,55.06601677497304,38.11088632356865,618.088197803582,-8.84483516186772,62.4184153760827,3.50820558330156,-2.14989032727954,7.86733875990518,111.287886128422
355.20099600000003,55.06601483614792,38.110905984420704,618.158281059242,-8.83936703307233,62.4209280190974,3.5041627829969,-2.10923243467707,7.89107269086203,111.31272652135
355.220996,55.066012900477496,38.1109256796473,618.228386589377,-8.84322260122639,62.4198034678916,3.5052765067518976,-2.07987212557365,7.88317549922916,111.340854348916
355.240995,55.06601097704507,38.11094530366945,618.298165507853,-8.83642020462413,62.4169591896268,3.488945923800202,-2.01122863062323,7.90916017785395,111.364894442269
355.26099600000003,55.066009053276304,38.11096495692328,618.368017742718,-8.84074510928587,62.4098792684852,3.492611743251928,-1.98891734687083,7.89683693264858,111.396055510327
355.280997,55.066007124121214,38.11098466317192,618.438070476645,-8.82722524657875,62.4102478018883,3.502636696345008,-1.87737841383767,7.91362654186274,111.425543356516
355.300995,55.06600520060032,38.11100428200885,618.50786724107,-8.830374825634,62.4019713029475,3.489838221253194,-1.87925766489737,7.91463424162091,111.45522834632
355.32099800000003,55.066003263542136,38.1110239846992,618.578056692842,-8.81812279995143,62.3967063550835,3.509472588598328,-1.73179350523278,7.90833440024945,111.48401797113
355.340995,55.06600133126552,38.11104359407494,618.648014514174,-8.8158876997705,62.3868955605389,3.497891066598413,-1.78222066774059,7.93162861476821,111.5165157394
355.360996,55.06599939229675,38.1110632536678,618.718242003598,-8.80852762969795,62.3815182550089,3.511374471202089,-1.62047588439615,7.91699975669916,111.548744874663
355.380995,55.065997453663975,38.11108291928223,618.788571060469,-8.81243177977822,62.3751864555414,3.5164528435529974,-1.63756319743852,7.93614554806802,111.580207898164
355.401001,55.06599551804736,38.11110259095194,618.858991240462,-8.80441899620756,62.369760272325,3.5210089996496663,-1.47007283229117,7.91876949160114,111.615384451384
355.421801,55.06599352022139,38.11112295842229,618.931967073948,-8.79606451651793,62.3574787253976,3.648791674299901,-1.49869967209978,7.93169391265862,111.648755018646
355.440994,55.06599167266323,38.11114184219844,618.99970095306,-8.81205778735308,62.3674076202526,3.386693955599185,-1.34553831868654,7.9391398086856,111.681769872071
355.460996,55.06598975129161,38.11116150259716,619.070323862995,-8.79471492636016,62.3477655403527,3.5311454967484224,-1.35616303358441,7.92873622999955,111.718968048893
355.480995,55.06598783084216,38.11118114852097,619.141028062169,-8.79942426512675,62.3473397705964,3.535209958698715,-1.20048782569415,7.94731459154265,111.753413445052
355.500994,55.06598590369324,38.11120082983042,619.212021576147,-8.78835278335161,62.3349764811517,3.5496756989005007,-1.18064719994896,7.91314216218538,111.788461649665
355.520998,55.06598397254511,38.11122049411672,619.28314199342,-8.80020726036319,62.3355990045931,3.5560208636525203,-1.02901373676814,7.92150345172058,111.822613343176
355.540995,55.06598204217428,38.11124009788722,619.354239727811,-8.7858858323127,62.3134350226613,3.554886719547312,-1.0095998072746,7.89442568914403,111.861252930022
355.560996,55.06598010306708,38.1112597583221,619.425739207149,-8.79195610652571,62.3123957251874,3.574973966902917,-0.907096715088235,7.91473702454437,111.894964500778
355.58099500000003,55.065978164204026,38.11127940492171,619.497384129252,-8.78489077684686,62.2964901102336,3.5822461051509435,-0.847105892324905,7.88233814079681,111.929927808073
355.600998,55.06597622546749,38.11129905955034,619.569253612373,-8.78948537280196,62.2921875177983,3.59347415604816,-0.745218868544429,7.88484502587413,111.964176847714
355.620998,55.06597428602425,38.11131874901792,619.641434164414,-8.78411460787859,62.2821098571898,3.6090276020502174,-0.70782044442685,7.87005280794126,112.000962520511
355.64099600000003,55.06597235665552,38.11133836000011,619.713391575152,-8.77919626874539,62.2682965037959,3.5978705368961528,-0.602150484658356,7.84518001989918,112.036735605898
355.660996,55.06597042490499,38.11135800336613,619.78535712222,-8.78936748654708,62.2678109824452,3.5982773534044554,-0.503923830901001,7.84416503137893,112.06892151799
355.680995,55.06596849252164,38.11137764556387,619.857031671762,-8.78098302209046,62.2536856806327,3.583727477098364,-0.457939911647883,7.81314523086179,112.104662282109
355.703229,55.06596613471992,38.1114015788535,619.943721509374,-8.78147285040433,62.2437059823055,4.334491880598534,-0.343714145243444,7.8087471304429,112.136211186849
355.720998,55.0659646141988,38.111416982866686,619.999031555077,-8.78708983233333,62.2398910781568,2.7655022851490685,-0.278037463038645,7.78596177518258,112.172788817817
355.740999,55.06596267376361,38.11143660561813,620.069039207952,-8.7825603334508,62.2332515498349,3.5003826437502994,-0.134318058610818,7.77924920982198,112.203703203767
355.76099500000004,55.06596073006296,38.11145622607964,620.138741140891,-8.77994149453951,62.2157310050653,3.485096646954844,-0.0632654887827901,7.77424751855577,112.236995763379
355.780996,55.065958779380985,38.11147588616191,620.208509201081,-8.78143441755489,62.2124206785107,3.4884030094985974,0.146018264938536,7.75780602293702,112.2670829995
355.800994,55.065956830474384,38.11149550210943,620.278269497501,-8.78104275310051,62.203525453264,3.4880148209992967,0.1744973802024,7.76832966814584,112.301784310879
355.821,55.06595487231692,38.11151518934224,620.348630836233,-8.77136558511505,62.1819889272624,3.518066936601372,0.386734602055153,7.74498631974883,112.333020602323
355.840995,55.06595292523084,38.1115347479377,620.418835051554,-8.77205060061173,62.1754986776544,3.5102107660463844,0.491871365479794,7.75781926464059,112.362891328096
355.860994,55.06595096708936,38.11155440443607,620.489524183348,-8.77568535956392,62.1626474533113,3.534456589699176,0.698538469461235,7.73855188511864,112.392593658069
355.880995,55.06594901290663,38.111574012291584,620.560000516784,-8.77668370693735,62.1518175295551,3.523816671804525,0.795234918379481,7.74394827274062,112.422226792487
355.900995,55.06594705608748,38.11159364192139,620.63034560336,-8.77925917240231,62.1398112551756,3.517254328795616,0.985146869328399,7.73765993837177,112.4509715791
355.92102700000004,55.06594509081898,38.11161335502375,620.700618379887,-8.77277407655759,62.1202231683999,3.5136388263538265,1.1583141910786,7.7341811636642,112.477040588658
355.94177,55.065943072501625,38.111633594431794,620.772333715397,-8.78607923263848,62.1138838280046,3.5857667755010425,1.30565172848345,7.7427792636139,112.502432693486
355.960995,55.06594120313069,38.11165232720737,620.838335593032,-8.7829903262219,62.0948882692283,3.3000938817451697,1.4554057928411,7.73154286865253,112.527444066891
355.980996,55.06593922623526,38.11167211572972,620.90768374694,-8.79255954554935,62.0792182025816,3.467407695404745,1.60845137555942,7.75431476397023,112.551501894417
356.000996,55.06593726074406,38.11169175982682,620.976164468941,-8.79313797207697,62.0673262833774,3.4240361000456687,1.82172187520168,7.73321625850322,112.573958861308
356.021008,55.06593529368145,38.11171138231659,621.044241214335,-8.81054085852805,62.0612953594891,3.403837269701171,1.92111633121487,7.74878404890945,112.594553732936
356.040994,55.06593334480683,38.11173078871173,621.111384571696,-8.8283574918887,62.0481701613797,3.357167868051647,2.09799571396465,7.7328167540272,112.614418685401
356.060995,55.06593137226864,38.11175040263624,621.179260584586,-8.8386018140106,62.0375137146101,3.3938006444998337,2.21153438093101,7.73663656123944,112.634737604063
356.080996,55.06592939902284,38.1117700023255,621.247303639443,-8.86432059445014,62.0380939052269,3.402152742847875,2.40916255553569,7.74349888454096,112.652099824131
356.100996,55.06592742133359,38.11178963180394,621.315869735508,-8.86741754208025,62.0219067175424,3.428304803253468,2.49583315468535,7.73254216550173,112.668459418204
356.121007,55.06592541816107,38.1118095057375,621.385891031289,-8.8937678505219,62.0187716641695,3.501064789048769,2.66411895298565,7.74999389865637,112.683030653473
356.140998,55.06592344793758,38.11182904173746,621.455170047933,-8.88965342398993,61.9948200410103,3.46395083220159,2.75387436599229,7.73294899254605,112.700014285718
356.160994,55.06592148825444,38.11184845505541,621.524149623964,-8.91164716451852,61.9868310735777,3.448978801549174,2.93845641484028,7.7544616034215,112.710530027382
356.180996,55.06591950615221,38.11186806466108,621.59365486635,-8.90551896585882,61.9650388155221,3.475262119297895,2.99702401087609,7.74490135358094,112.724563615067
356.20099500000003,55.06591750104075,38.11188786800992,621.663354718557,-8.9299472815171,61.9531784372729,3.484992610350446,3.15667730326362,7.75710887810359,112.734518648107
356.221007,55.06591551072562,38.11190748537682,621.731643366168,-8.93710814861618,61.9374685182378,3.414432380549215,3.23439736825972,7.7465514571352,112.748114169722
356.240996,55.06591354465091,38.11192682986511,621.798392423836,-8.95320813810718,61.9243243473065,3.3374528834031025,3.37408396455232,7.74050290160545,112.756635978721
356.261002,55.06591154894191,38.11194644238336,621.86584167238,-8.96099184875265,61.9072770090693,3.3724624271997072,3.45288488814731,7.75589628270916,112.768148146627
356.28175300000004,55.06590947066792,38.11196685292164,621.936201983701,-8.97262589990891,61.8880113292395,3.518015566049826,3.55389789087448,7.74020463591182,112.775742150103
356.300995,55.06590755881164,38.11198562754669,622.001435899217,-8.98380509438524,61.8769587780197,3.2616957757966247,3.65641893417607,7.76310153365904,112.784129704507
356.32099800000003,55.06590556311512,38.11200523276471,622.0704077815,-8.99548014998228,61.8513593449257,3.448594114149728,3.72890559691238,7.72809330160268,112.791902060586
356.340994,55.06590357396689,38.11202477229524,622.139932098777,-9.00494740269027,61.8436725343609,3.4762158638500296,3.85955618645586,7.74533144856278,112.80048038824
356.360996,55.06590155387223,38.11204459562305,622.210953647612,-9.03043592975967,61.8300437325365,3.5510774417502944,3.87710229284991,7.73651241748257,112.807874785598
356.380995,55.06589957805282,38.112063946601296,622.280452345502,-9.03922808094208,61.814929468149,3.4749348945013026,4.03042348293419,7.73766137034305,112.813358826298
356.400994,55.0658975725251,38.11208353214069,622.350657650517,-9.06438647984083,61.804315668343,3.51026525074758,4.01029194621829,7.74577875927883,112.823414768651
356.420998,55.06589555408927,38.11210317091541,622.420636026061,-9.07424254057436,61.7912613349854,3.498918777199833,4.17960987951297,7.72898322211005,112.829871965193
356.440995,55.0658935404114,38.11212269818235,622.489783900512,-9.0967254728902,61.7739808568649,3.4573937225502505,4.15889834418048,7.75102430066676,112.838594690941
356.460996,55.06589151476076,38.11214229571557,622.558872115747,-9.10371957917495,61.761883340057,3.454410761753479,4.31407587479937,7.72752885381761,112.843410240917
356.480995,55.06588948532718,38.1121619034605,622.62781467672,-9.11840806475079,61.7443117279644,3.4471280486513933,4.28222274074718,7.75088951787056,112.852625664361
356.500996,55.06588746043956,38.11218146041307,622.696524959902,-9.13553409445866,61.7375244754805,3.4355141590992844,4.42929591315304,7.74333777434782,112.859247810401
356.520998,55.06588543530774,38.11220102994883,622.765350693953,-9.15049139123214,61.7182192531792,3.441286702548041,4.40061143904185,7.74334432807184,112.865680163221
356.540996,55.06588341467914,38.11222056173864,622.834216782849,-9.17254075066485,61.710858714541,3.443304444800788,4.55417989000484,7.74370662034977,112.873302169523
356.56210400000003,55.06588103930418,38.11224350803393,622.915463990482,-9.17785841929001,61.6912782553786,4.062360381647068,4.55527486510765,7.72902571082839,112.878523117708
356.58099400000003,55.06587936105855,38.11225969700548,622.973081888681,-9.21786035874469,61.698033008738,2.880894909952758,4.66211638633884,7.76044700654516,112.887865360542
356.600996,55.06587732444683,38.11227930245423,623.043270387018,-9.22142144327144,61.6691595221177,3.509424916848048,4.67063164654241,7.74094986799099,112.896492235385
356.62100000000004,55.065875265249865,38.11229906667158,623.114548303595,-9.25284071551523,61.6755241835615,3.563895828852992,4.78021674038718,7.77904534445049,112.907390112275
356.64099600000003,55.0658732423606,38.11231842728928,623.184757606372,-9.26881981453993,61.660924843278,3.5104651388508046,4.80022504406538,7.7487252167616,112.914335796958
356.660995,55.065871197776296,38.11233795106829,623.255722884334,-9.29518505245575,61.6518893831936,3.548263898096593,4.91634758640622,7.76193994472283,112.923770926801
356.680995,55.06586914532293,38.11235751598989,623.326777727277,-9.31421232406291,61.6409064931107,3.5527421471499565,4.93541422901863,7.75162069289956,112.934165080183
356.70099400000004,55.06586709162951,38.11237706950586,623.397504672866,-9.33347579797801,61.6278775496283,3.536347279452912,5.00588304218937,7.74631006283407,112.946086753938
356.721,55.0658650315608,38.11239666974665,623.467909742819,-9.35694276206393,61.6170197604725,3.5202534976463085,5.07792630719938,7.74636575008246,112.956437364028
356.740998,55.06586297767886,38.112416192741854,623.537575717801,-9.36861991667374,61.6002910099345,3.4832987491029144,5.13066438259699,7.7332047169789,112.968615590669
356.760994,55.06586092079854,38.11243571389922,623.606927752757,-9.38736960633019,61.5858880784831,3.467601747797744,5.17732525718313,7.74658716289049,112.981668154033
356.780998,55.06585885364514,38.11245529000474,623.676321801888,-9.40312315693419,61.5656059182526,3.4697024565502943,5.24349786767938,7.72781013180642,112.997786107299
356.800996,55.06585678855479,38.1124747922446,623.745456424009,-9.41900686179199,61.5580859391794,3.456731106052757,5.34514252744297,7.73708347056398,113.009677374719
356.821003,55.065854708059895,38.11249437502176,623.815025489103,-9.43575831387721,61.5340161001149,3.478453254700753,5.34107383779401,7.73806811094127,113.024969690059
356.841001,55.06585263101798,38.11251386492514,623.884470608792,-9.45130261016387,61.5172736474891,3.472255984445382,5.45737899949244,7.73139218796221,113.036936399324
356.861751,55.06585046132106,38.112534173218805,623.957060688964,-9.47989831292453,61.508071600146,3.629504008603135,5.43917001723926,7.74127560822013,113.055009571312
356.88099800000003,55.065848457779616,38.11255289177564,624.024184016441,-9.4898381597801,61.4867763922467,3.3561663738510106,5.55569298905695,7.73535994190568,113.069536907676
356.900996,55.06584635761256,38.112572489469294,624.094690441501,-9.51433848276774,61.473583000334,3.525321252999447,5.5524801284028,7.75141591315902,113.087277778632
356.92100800000003,55.06584426571409,38.112591996570416,624.165112431454,-9.53428487156965,61.4587457620352,3.5210994976466736,5.65767123672505,7.7315866436344,113.099917623026
356.940995,55.065842171977096,38.112611505809575,624.235774343665,-9.55421832568627,61.4388760025457,3.533095610549708,5.63472367009293,7.754830607841,113.118699183321
356.960995,55.06584007493914,38.11263102244631,624.306677814592,-9.57090082333997,61.4210071721325,3.545173546353908,5.71958309605767,7.74725035326712,113.134941955351
356.980996,55.06583797386131,38.11265054489376,624.37779965805,-9.58280014347414,61.3996070649444,3.556092172897252,5.74066977325434,7.76513541753379,113.151139816692
357.000996,55.06583586336812,38.1126701144801,624.449273552506,-9.60767243357935,61.3842202554,3.573694722803112,5.79073301770964,7.76140730533869,113.166679798614
357.021007,55.06583375815806,38.11268958745551,624.520553934427,-9.61447385625286,61.3602412703956,3.5640190960464224,5.81438247078844,7.75485551178202,113.18276282648
357.040996,55.06583164498051,38.11270908687653,624.592048609395,-9.63806262350737,61.3408556615446,3.5747337483996944,5.82592021943495,7.77614299018222,113.202256957208
357.060994,55.06582953040241,38.11272855669322,624.663498269972,-9.64522967020655,61.3170823793843,3.572483028852957,5.89447824371108,7.75603355766449,113.217488897168
357.080996,55.06582740894074,38.11274805200745,624.735051024136,-9.66922136011122,61.3034821679406,3.577637708201564,5.85379949510234,7.78191786965491,113.235711433222
357.100996,55.06582528357861,38.112767549945424,624.806568777796,-9.68085817198601,61.2764623213381,3.5758876829959263,5.87682224620062,7.76005320302661,113.250942062844
357.120998,55.06582315068146,38.11278708773273,624.87814494637,-9.69429316670111,61.2517329679862,3.578808428699176,5.87388061250478,7.7880911321658,113.271246988861
357.141005,55.065821023233305,38.112806544359984,624.949400332008,-9.72226865657662,61.2478367471396,3.5627692819048207,5.93680290811089,7.77816982572385,113.286633767358
357.161593,55.06581880104216,38.112826828342826,625.023792643235,-9.73274341410343,61.2186357202831,3.7196155613457904,5.86165159835173,7.7812122091072,113.302641824392
357.180997,55.065816749655184,38.11284551261083,625.092532569679,-9.76377338584452,61.2130356965397,3.436996322199093,5.92611967349353,7.7910870712663,113.316953865186
357.200998,55.06581459915321,38.11286505251333,625.164762132657,-9.7747678925862,61.1920972054007,3.61147814890046,5.86048814960639,7.78175617301667,113.333884084601
357.221017,55.06581244206027,38.11288459938934,625.237475934328,-9.80368438045328,61.1809678110893,3.635690083552845,5.91305545786538,7.83195138909791,113.351558996456
357.241008,55.06581029892276,38.112903970048805,625.309963659962,-9.80718796521363,61.1530172606218,3.6243862817002537,5.83936223825688,7.80151334162569,113.364801213227
357.261007,55.06580813657075,38.1129234707583,625.383273584713,-9.837707631879,61.143735225816,3.66549623755077,5.90024465458785,7.83843851243774,113.382754488589
357.281007,55.06580597751951,38.11294290458029,625.45656995558,-9.84617764713553,61.1224695127613,3.664818543347792,5.82936414261251,7.82465911279882,113.40256922263
357.301011,55.06580381453135,38.11296234317525,625.530024662423,-9.86987486344465,61.1079139714375,3.672735342149736,5.86299939818224,7.84777178035653,113.420344399143
357.32102000000003,55.06580164061133,38.11298185507397,625.603811074349,-9.88192509448876,61.0876022964241,3.6893205962996944,5.78548388965231,7.85375341748856,113.442390334099
357.34102,55.06579947325667,38.11300128415118,625.677359937681,-9.89463381861061,61.0659119281797,3.677443166600369,5.81926698210862,7.85085613109046,113.463437762235
357.361019,55.06579730028936,38.11302073788082,625.751157770223,-9.9158598443521,61.0568634945798,3.68989162710136,5.77575432196552,7.85740796034773,113.484923875091
357.38102200000003,55.06579512275066,38.11304020503594,625.825243121428,-9.9284590326616,61.0277549825184,3.704267560249264,5.79308408240139,7.83816995949708,113.507715372985
357.401022,55.065792935797,38.11305972693204,625.899855653149,-9.93528892522671,61.0113497433551,3.730626586047947,5.80372604845962,7.86044719687347,113.534250280674
357.42121000000003,55.065790693991616,38.11307970575481,625.976607178016,-9.96582613931618,60.9994769440561,3.837576243353169,5.74521563930777,7.84411079480406,113.55817838131
357.44266,55.06578814121569,38.11310240920859,626.064118429742,-9.97855726094055,60.9844382307576,4.375562586301385,5.7833467835729,7.8517184709915,113.582083127877
357.462,55.06578600434948,38.11312136888337,626.137177703105,-10.00647842394,60.9661108743307,3.652963668145048,5.71700001719957,7.85372971342834,113.609622660432
357.48199800000003,55.06578380630336,38.11314082264423,626.211875433069,-10.0173586819081,60.9596937647043,3.734886498205016,5.78553533681268,7.85781439717238,113.637894569548
357.501999,55.06578160424658,38.11316025655561,626.285993175184,-10.0436492525294,60.9377997204082,3.705887105746797,5.71262232567141,7.8713638438992,113.667442265019
357.52200400000004,55.065779372102135,38.11317989531709,626.360222230868,-10.0486944508366,60.9277385112044,3.7114527841993095,5.81711879287439,7.85288758212911,113.694017114828
357.542002,55.06577717092572,38.11319920675862,626.432842780785,-10.0724228139642,60.9057704941294,3.631027495850958,5.70754837525517,7.87629036118814,113.727095743406
357.561999,55.06577496659361,38.11321849911814,626.505453203292,-10.0859152794315,60.8990408378566,3.630521125347741,5.83189072140796,7.8819798690908,113.759682322581
357.581998,55.06577274314385,38.11323791916806,626.579038965296,-10.1084299300883,60.877718773475,3.679288100204303,5.76587724945087,7.88434406395457,113.792194886868
357.602002,55.065770517256965,38.11325732837268,626.653513928875,-10.1241791012536,60.8700089298056,3.723748178947517,5.87853057543965,7.89471138192111,113.827574474415
357.622002,55.06576829280906,38.11327669917167,626.72909814233,-10.1332875701067,60.8422529752263,3.7792106727522414,5.82089255532894,7.88535207238519,113.860145669725
357.642014,55.06576609267141,38.11329583153243,626.804754375537,-10.1667740126029,60.8458613940302,3.782811660346397,5.9397280962448,7.91451162515108,113.896888116042
357.66199900000004,55.06576384055331,38.11331538443488,626.882673115849,-10.1753430627457,60.8152038630082,3.8959370156021578,5.86810427785933,7.89860924174066,113.931476621723
357.682002,55.06576156491776,38.113335105144685,626.961431912774,-10.2015387533486,60.8106207810904,3.937939846247218,5.98973073572249,7.93673041922372,113.970679954974
357.702015,55.06575932047568,38.11335451578704,627.03868415807,-10.2132847604283,60.7913398710453,3.8626122648054206,5.97612351916179,7.90167588657756,114.005101876854
357.722669,55.06575698474293,38.113374671200965,627.118238347555,-10.2418186285329,60.7795569114772,3.977709474247604,6.0514671809609,7.93568762342989,114.044456732735
357.742002,55.06575480933998,38.1133934054989,627.191613904669,-10.2516771485811,60.7513448706072,3.6687778556995454,6.02353132645934,7.91155147025451,114.080031382219
357.761998,55.06575257642129,38.113412602716586,627.266392239407,-10.275626266648,60.7434405761085,3.7389167368985454,6.07785132156544,7.94360492397721,114.120700225737
357.781998,55.065750318908,38.11343198335865,627.341625061899,-10.2965788277146,60.7267524837362,3.761641124600601,6.0722985938136,7.92885595575662,114.155301007951
357.801998,55.065748076697474,38.11345121004035,627.41616384904,-10.3194629945466,60.7119184209376,3.726939357051151,6.10762161625796,7.92907264036373,114.192468811356
357.822006,55.06574576816951,38.11347098636849,627.49289207678,-10.3504990664655,60.7034564844685,3.836411386998861,6.09214937253022,7.94530903785164,114.233524725941
357.841998,55.0657435289704,38.11349014931855,627.567391938476,-10.3662343228111,60.683399371029,3.724993084802009,6.07287377898748,7.9233613040892,114.273158537439
357.862005,55.06574124420213,38.113509679601776,627.643549570252,-10.3951123357369,60.6755747867516,3.807881588801365,6.08955560122009,7.94175457934284,114.310966708126
357.881998,55.0657389885777,38.113528935512974,627.718939113873,-10.4133736986582,60.6536399541559,3.7694771810492966,6.02247367409397,7.93356873068702,114.35024821886
357.902,55.06573670912521,38.11354836653412,627.795393721248,-10.4352059850849,60.6380936047669,3.8227303687506256,6.02259509358626,7.94213445533373,114.387322720068
357.922007,55.06573441286845,38.11356790950836,627.872722134954,-10.4644270085688,60.6246261908484,3.86642068529568,5.92918936099678,7.94332264310541,114.429136560893
357.941999,55.06573215850086,38.1135870645818,627.948840729605,-10.4785125075294,60.6076812417035,3.8059297325503394,5.9206964160125,7.95213315776738,114.466985014406
357.961993,55.06573015319756,38.11360407701528,628.0165993108,-10.5001914401574,60.590997250096,3.3879290597496947,5.82126441923824,7.95999004276873,114.505566648144
357.982006,55.06572758139061,38.11362585883396,628.103400907397,-10.5209769934386,60.5795500607528,4.340079829853494,5.83548064557999,7.94936902987009,114.542491215559
358.00201500000003,55.06572532128771,38.11364496636365,628.179436353602,-10.5502425727231,60.5669933819217,3.801772310248453,5.68976759074025,7.96868166784797,114.583659655117
358.022652,55.06572290356528,38.11366537083092,628.260370907441,-10.5679370593273,60.5483468625074,4.046727691951446,5.67418659230475,7.94383321472135,114.621135552162
358.04199900000003,55.065720708148,38.11368386829795,628.333459696176,-10.5892637385522,60.5384581037786,3.6544394367467694,5.56998319035329,7.96343726795123,114.661835412001
358.061998,55.06571840680858,38.1137032281331,628.409646674681,-10.6133801564805,60.5277519150614,3.809348925250333,5.5370394020646,7.95513611475144,114.700396030983
358.082,55.065716124877255,38.113722395707846,628.484743280154,-10.6301542871737,60.5095804921557,3.754830273652488,5.43726446522013,7.95565485906926,114.739802289095
358.10199900000003,55.065713796047895,38.11374192889705,628.560907522252,-10.6608562955908,60.5021315347691,3.8082121049001216,5.35942558088209,7.96799052299372,114.783313408578
358.122004,55.06571146046696,38.11376149153342,628.636830098379,-10.6668948204605,60.4817215858402,3.796128806351362,5.28897868002082,7.956217634184,114.823972614209
358.141999,55.06570916109567,38.113780726252976,628.711334139032,-10.7006383153781,60.472380415886,3.725202032649122,5.18491652884175,7.98942493174558,114.867723040724
358.16200200000003,55.06570685039407,38.113800033231904,628.786237508472,-10.7086549712118,60.4516683910573,3.7451684719997047,5.09815042431455,7.957094832757,114.907736390277
358.182,55.06570452965378,38.11381940345633,628.861772624284,-10.7277778984532,60.4285668252094,3.776755790596553,4.9747067035398,7.9926886119193,114.954834853045
358.201998,55.06570221142426,38.11383873416179,628.937805802073,-10.7486172597818,60.4242288020366,3.8016588894493,4.92718164361107,7.96998431776333,114.996396285652
358.222006,55.06569987418663,38.113858205746745,629.015246450742,-10.7567993072009,60.394460325418,3.872032433451977,4.7329249180844,7.98208264928914,115.0408345559
358.242001,55.06569756727611,38.113877403603006,629.092237967597,-10.7785199472655,60.3828032428646,3.849575842752984,4.69436698322989,7.98853384288172,115.084388582158
358.26215,55.0656952176688,38.11389692983271,629.170862037767,-10.7834383528691,60.3536061326671,3.931203508500402,4.50951378075896,7.97085840295601,115.130412413735
358.28323900000004,55.065692769376994,38.11391724140616,629.252621433918,-10.8173948923049,60.350009625943,4.087969807545733,4.44637247397921,8.02099522898945,115.177612410866
358.302002,55.065690567582,38.11393547275361,629.325672334866,-10.8172062737269,60.31811462194,3.652545047401645,4.22976683632804,7.96829366804479,115.220738238811
358.322004,55.065688260268985,38.11395453852453,629.401472946783,-10.8523867882155,60.317281369208,3.790030595848748,4.18382648073527,8.04208470760435,115.267048636201
358.341998,55.06568589829391,38.113974018458165,629.478349508285,-10.865965774264,60.2990709871695,3.843828075099509,3.94478843360455,7.98899086896348,115.310321848329
358.362,55.065683561320405,38.11399326136283,629.553882081015,-10.8916401608348,60.2884294922602,3.7766286365013,3.89377841392131,8.03164624517828,115.355516265844
358.381997,55.0656812023886,38.11401266050334,629.629776638628,-10.9059375131298,60.2807616951394,3.794727880648452,3.65027891764532,7.98972426882266,115.398519752378
358.401999,55.0656788471452,38.11403201114372,629.705389700973,-10.9255547324071,60.2630220080838,3.7806531172520863,3.59521247960764,8.01326353266759,115.443751985984
358.422003,55.06567647901792,38.11405145453302,629.781411462059,-10.9501301800458,60.2678170013779,3.8010880543026815,3.4202384619655,7.99964006203742,115.487200955211
358.441999,55.06567417972947,38.11407031862297,629.855230101997,-10.9702474798824,60.2491483402142,3.690931996897007,3.30034908730105,7.98540227222055,115.531916644399
358.461999,55.065671823317295,38.11408963320906,629.930853720385,-10.98126628661,60.2435948046331,3.781180919401095,3.14783811304638,7.99945553310869,115.578646720961
358.48199900000003,55.06566942472712,38.114109270749466,630.00776353136,-11.007437479239,60.2286004654225,3.845490548746966,3.02637698496183,7.99543095058212,115.625958292432
358.50201500000003,55.06566705935366,38.11412861002815,630.083504753201,-11.0310160559094,60.2351066643572,3.7870610920549552,2.90512805464567,8.00520473537806,115.671338176997
358.52200400000004,55.06566468952687,38.11414795576321,630.159265557205,-11.0554362773635,60.2151150820329,3.788040200197429,2.75380105257983,7.99568764136258,115.719607633677
358.542002,55.06566231148743,38.11416733473796,630.235232269819,-11.072515820527,60.2203853418506,3.798335630699512,2.68417916367143,8.01137442225259,115.765947469975
358.562017,55.065659945347925,38.11418657955899,630.310856646988,-11.1256021919395,60.2214583905202,3.78121885844962,2.46932639451964,8.01380215116655,115.81265291529
358.58263,55.06565749685696,38.11420645141031,630.389251601297,-11.1523912816422,60.230483363563,3.919747715451649,2.4361807031659,8.00702817487534,115.858885278593
358.602005,55.06565520147189,38.11422503782182,630.462961517937,-11.1965646688006,60.2296864509478,3.685495831996377,2.20969993382586,8.01513507679539,115.905216774508
358.62201500000003,55.06565280677004,38.11424438232943,630.540153771088,-11.225999775009,60.2384329043342,3.85961265754986,2.18137991260441,8.01785244358237,115.950343627407
358.64201,55.0656504396644,38.11426346321504,630.616707773409,-11.2618073678584,60.2296173001061,3.827700116050892,1.963689185642,8.02519191191288,115.994477982016
358.66199900000004,55.06564801423425,38.1142829804484,630.695326739603,-11.2924684520956,60.239458117989,3.930948309704263,1.95320691974601,8.03313720281958,116.038678070397
358.681999,55.06564564828084,38.11430199393227,630.772114913728,-11.323340160458,60.2347132414382,3.839408706249969,1.71078196385262,8.03151230166189,116.081276187314
358.701998,55.06564321602572,38.1143215223696,630.851075467057,-11.352922053941,60.2394432976871,3.948027666444887,1.70024086762028,8.05192438337366,116.124332622934
358.72201,55.06564079240703,38.11434097071446,630.92971179758,-11.3796072594213,60.2309263209107,3.9318165261533977,1.46348451006579,8.02319696788621,116.166307923201
358.742004,55.06563839617451,38.114360192081584,631.007428959208,-11.4188185379393,60.2438582417059,3.885858081400784,1.45420541541653,8.06748124735723,116.207239498763
358.762002,55.06563601601949,38.11437927942946,631.084630657991,-11.4397412388211,60.2315728429703,3.86008493915142,1.24549859030059,8.00860158268609,116.244276306072
358.78200100000004,55.065633614670695,38.11439853369302,631.16256214288,-11.4814218953888,60.2430212197202,3.8965742444474927,1.19392344414365,8.06380251402362,116.280552596402
358.802007,55.06563121070152,38.11441780797485,631.240657841375,-11.4998070507855,60.2288884491744,3.904784924748128,0.95783752748564,8.00126126454671,116.316085443037
358.82201200000003,55.06562878971019,38.11443721806356,631.319423928888,-11.5366873413429,60.2391240497173,3.938304375651569,0.925553272895576,8.05688327016497,116.348952187481
358.84201,55.06562640432766,38.11445633346122,631.397183948999,-11.5758672219668,60.245352205197,3.888001005549313,0.723190851935793,8.00742717340474,116.379597378971
358.862034,55.06562402776147,38.1144753579719,631.474843501809,-11.6050026744369,60.2460894748749,3.88297764050094,0.63644287792962,8.01468484584922,116.408396577813
358.882653,55.06562151258292,38.11449545790918,631.557275228822,-11.6433214863529,60.2574316373261,4.121586350652251,0.448958853813648,8.00605488750286,116.435539458642
358.902014,55.06561917920284,38.11451406264371,631.634007187957,-11.6659548854982,60.2466575722546,3.8365979567458894,0.362512595365326,7.97773379839512,116.462020634805
358.92204300000003,55.06561673796111,38.11453347551132,631.71456655525,-11.7011384093812,60.2587473674974,4.027968364653134,0.252151355829242,7.97894184094616,116.481517008803
358.942023,55.06561432843523,38.11455259079204,631.794266638949,-11.7232992181952,60.2503932366284,3.985004184949048,0.080183594699614,7.94502259388043,116.501972388654
358.961992,55.06561223959802,38.11456913404402,631.86341231233,-11.7511598798667,60.2560105911804,3.4572836690472286,-0.0342688791075446,7.97723307243508,116.513687449544
358.982027,55.065609502485295,38.11459078459073,631.953950573325,-11.7841479803061,60.2509293983193,4.526913049750192,-0.177734062732269,7.9186487450591,116.527792063396
359.00203400000004,55.06560703338698,38.1146103008932,632.035420300558,-11.8032251659179,60.2548543970462,4.073486361653522,-0.253153081982002,7.94017700358907,116.531061180071
359.022036,55.06560458349686,38.11462966147726,632.115958354129,-11.8362733672899,60.2544197832695,4.026902678549504,-0.479611324618292,7.91176170535953,116.533481183339
359.04203,55.06560216555452,38.11464876336567,632.19519692073,-11.8599544163519,60.2521169420884,3.9619283300510233,-0.51473404640868,7.89873761381138,116.530941490871
359.062034,55.0655997285909,38.11466800322649,632.274895979483,-11.8957419358188,60.2622011806019,3.984952937645403,-0.754193425396081,7.88905864462915,116.522749293752
359.082038,55.065597290523804,38.11468723342559,632.354555316642,-11.9071674525989,60.2502174497017,3.982966857950032,-0.792819896814448,7.8462847872436,116.510744259086
359.102039,55.06559484808718,38.11470647365935,632.434369319412,-11.9273062630714,60.2516915892054,3.9907001385017793,-0.981257436082227,7.84115600843676,116.491874847759
359.122049,55.06559238661082,38.11472583405806,632.514889299325,-11.9549921606162,60.250871947991,4.025998995649616,-1.09258928975467,7.80188207168196,116.471097573041
359.144291,55.06558968065112,38.11474708263998,632.603485267639,-11.9628473136665,60.2468264037207,4.429798415702635,-1.25221749103965,7.79772718897798,116.445753745031
359.16204500000003,55.0655875020815,38.11476416455302,632.674836888152,-11.9887472023884,60.2547860707778,3.5675810256464047,-1.3244189802565,7.76026706499074,116.418062542379
359.182048,55.06558504889652,38.11478337383045,632.755168270235,-11.9997711616789,60.2601541836154,4.016569104152268,-1.42003822600999,7.71625894640668,116.386537014687
359.202051,55.06558258997894,38.11480260170454,632.835632554062,-12.0327889331833,60.2657691488127,4.023214191352054,-1.52070078149673,7.70535475361907,116.350735622869
359.222064,55.0655801096373,38.114821972038506,632.916686734181,-12.042463319558,60.2678844270364,4.052709005947008,-1.57293009361912,7.63756804638255,116.317081564116
359.24206100000004,55.06557766125291,38.11484107139025,632.996462752792,-12.0565779928703,60.2707274006243,3.988800930551406,-1.69833099778702,7.62217959531717,116.280762032108
359.262217,55.06557520346788,38.11486022647326,633.07616543496,-12.0833337481865,60.2820566183269,3.985134108398825,-1.6688321484603,7.56758168006639,116.242625712696
359.282067,55.06557271997384,38.11487956783997,633.156167265536,-12.0861929189741,60.2811148742119,4.000091528803296,-1.79558618885963,7.52396717556797,116.202773457407
359.302067,55.06557025790853,38.1148987321283,633.234801188011,-12.1121106694744,60.2941105128476,3.9316961237489054,-1.80528441325798,7.48664401273045,116.162659025494
359.322081,55.0655677638515,38.1149181382012,633.313646531483,-12.1158754464266,60.2940531500273,3.942267173596292,-1.87600507953401,7.42994428768698,116.12354992794
359.342074,55.065565314879024,38.11493718584214,633.390291011996,-12.1600157902508,60.3225092367618,3.832224025654796,-1.81271219969038,7.4208378657519,116.076026224596
359.36210700000004,55.0655628518331,38.1149563336374,633.466662560412,-12.1576934950797,60.3183025380728,3.8185774207988734,-1.90994654608534,7.35666113549237,116.036081661556
359.382081,55.065560362072105,38.11497567792849,633.543198448954,-12.1683773395602,60.3205962654704,3.826794427095592,-1.86554205829324,7.34227970759296,115.988379962288
359.4021,55.06555789008127,38.11499487133619,633.618590654513,-12.1747916989401,60.3279858169722,3.769610277953461,-1.89575060026484,7.27518040601065,115.946247764634
359.422758,55.06555531410674,38.115014857275206,633.696573611026,-12.1934854401556,60.3312647910523,3.899147825649152,-1.82212421172477,7.26034013848067,115.896060539628
359.442088,55.06555294609,38.11503321765699,633.76772110424,-12.195759511768,60.3343097983897,3.5573746606985424,-1.84847506801009,7.20649960084941,115.851686538357
359.46209,55.06555046655515,38.115052432311,633.84162670196,-12.210283253882,60.3449899081279,3.69527988599998,-1.80217090634901,7.17740739100646,115.803049603348
359.482091,55.06554798608289,38.11507164565195,633.914915106058,-12.2209842719535,60.3519626248438,3.664420204898988,-1.76086006089443,7.13694907389243,115.756779710691
359.502092,55.06554550678513,38.115090843392814,633.987484600724,-12.2312157489622,60.3537816606536,3.6284747333013456,-1.71220861873467,7.08958451500794,115.709267431272
359.5221,55.06554300194818,38.11511023397684,634.060068532926,-12.2361997748073,60.3633571211019,3.629196610103236,-1.65173659036407,7.07347021075976,115.661504462244
359.542098,55.065540542022006,38.115129271697405,634.130605615707,-12.2445459035821,60.3628718877983,3.5268541390507835,-1.63202358061771,7.02800014961087,115.614357969001
359.5621,55.065538058928695,38.1151484824467,634.201032479842,-12.2517408297483,60.3713097597547,3.5213432067450867,-1.532424354956,7.01116500445562,115.564650246423
359.58211,55.06553560049084,38.11516749522401,634.269968670458,-12.2600696162903,60.3657146351853,3.44680953080001,-1.53785489964321,6.97686087965439,115.517648721534
359.602106,55.0655330826705,38.11518695873759,634.339728196131,-12.2610816019781,60.3730248386883,3.487976283651051,-1.39721239294092,6.95193050787897,115.468915061965
359.622115,55.06553058415264,38.11520626447165,634.408104979833,-12.2816878009398,60.3817744550028,3.418839185098932,-1.44417208033963,6.94088612410604,115.419742258978
359.642115,55.06552811823734,38.11522531480372,634.474851801404,-12.2860931335355,60.3861214321653,3.3373410785543456,-1.3157825602755,6.90506144839397,115.369625035821
359.66211500000003,55.06552563192011,38.11524452569888,634.541529772388,-12.3018583215671,60.392266590101,3.333898549198011,-1.34222862971948,6.90391629635648,115.319714812609
359.682117,55.06552314601443,38.11526374283792,634.60769398161,-12.3222069488286,60.4156965833741,3.3082104611025898,-1.22178399378921,6.88150541548257,115.267499348479
359.70163,55.065521038912685,38.11528004385532,634.663472223579,-12.3336823648401,60.4193095625273,2.788912098446872,-1.28021957306599,6.88628758141399,115.216761497694
359.722784,55.0655184083947,38.11530041480232,634.732820599074,-12.349487826976,60.4282117168053,3.467418774749831,-1.17718462752719,6.86728688333331,115.165138666416
359.74215200000003,55.06551602662496,38.11531887521234,634.795361391863,-12.3603735230159,60.4407970435135,3.127039639451823,-1.19836739960331,6.85879806233936,115.111593778671
359.762118,55.06551355355072,38.11533805115439,634.860039771109,-12.3915078860617,60.4611829063099,3.2339189622973663,-1.1026307377158,6.8511014345654,115.059072472104
359.782117,55.065511078044864,38.115357245878975,634.924506981503,-12.3981797180345,60.4682943681542,3.223360519700691,-1.15216528014719,6.83846498146785,115.007837146237
359.802119,55.0655085971069,38.1153764743262,634.988829315532,-12.4265062114442,60.4909025785452,3.216116701452165,-1.09608492883576,6.86669137861782,114.954842912492
359.82214,55.06550613752124,38.11539552175496,635.052294332938,-12.4277163032333,60.4952505094076,3.173250870298716,-1.06397760683089,6.84113587711936,114.904396805719
359.842121,55.065503680231885,38.11541453738846,635.115303423345,-12.4586727067279,60.5219112812928,3.1504545203517864,-1.0217422030573,6.85756876867256,114.851704094335
359.862125,55.06550123601037,38.11543344352504,635.177457277354,-12.4566648880571,60.5193257575122,3.1076927004505706,-1.04750644309545,6.85252984919751,114.804072099787
359.882127,55.06549877953581,38.11545244166894,635.239274833559,-12.4673802001568,60.5291305657903,3.090877810245729,-0.983275488636452,6.87276107267363,114.7549171294
359.902135,55.06549631726183,38.1154714875525,635.300464652179,-12.4807109249568,60.5417923863741,3.0594909310025287,-0.942871756144962,6.87538823765172,114.705804905161
359.922134,55.06549383990594,38.11549065823268,635.361152235364,-12.484620167452,60.5444480237334,3.0343791592486014,-0.926218841636844,6.8737931646513,114.659254938663
359.942131,55.06549137054992,38.1155097761309,635.420881808079,-12.4897667061818,60.5460522960543,2.9864786357507,-0.904509555301949,6.88317814099137,114.613645922714
359.961631,55.0654889320703,38.11552866275981,635.479331686847,-12.4934244178019,60.5549664768561,2.922493938399384,-0.873921994870734,6.88164214274025,114.572026560474
359.982766,55.065486301297696,38.11554904612006,635.542035893493,-12.51331075445,60.5734547926675,3.135210332300176,-0.812025502705938,6.9014787600643,114.526627510767
360.002141,55.0654839097565,38.11556758142849,635.598928743181,-12.5216223308451,60.5813907652279,2.8446424843991736,-0.77489099733557,6.89139221232675,114.487240990482
360.022147,55.06548141477791,38.11558692278151,635.658362273962,-12.5293504918488,60.5918218702394,2.9716765390503497,-0.685843725422103,6.90815270441542,114.444890513881
360.042145,55.065478955183096,38.11560599193563,635.717011324968,-12.5442762963098,60.6053532004096,2.932452550300013,-0.694140244007315,6.91442924252675,114.410937694667
360.062145,55.06547647052675,38.11562525462166,635.776184272855,-12.5567231918928,60.618757594356,2.9586473943481906,-0.569387879200455,6.92213980949533,114.371619237434
360.082152,55.06547398702521,38.11564450467317,635.835121341789,-12.5904238033264,60.6470197199136,2.946853446701425,-0.57792060237975,6.94692190464019,114.33536853941
360.102143,55.06547152083866,38.11566361399283,635.893308520986,-12.6109527393458,60.6592810578722,2.909358959851716,-0.46492015542235,6.938120378775,114.299039642242
360.122156,55.06546903013315,38.115682904369976,635.951622431667,-12.6375119057618,60.6810273320019,2.9156955340511104,-0.476537740822408,6.96432493682543,114.265978851922
360.142151,55.06546655938352,38.115702034080975,636.009135602724,-12.6539994977142,60.6915520646142,2.875658552846972,-0.394804050367045,6.95427912304325,114.232626576697
360.162152,55.06546407704009,38.11572125290079,636.066818481031,-12.6690010334761,60.7045930842033,2.8841439153495685,-0.384604102731193,6.97306950434766,114.198243375373
360.18215100000003,55.06546159621316,38.1157404648121,636.124600885367,-12.7012503906001,60.7279266853451,2.889120216804031,-0.342282523944981,6.97141778033122,114.166400767396
360.202152,55.065459106944566,38.1157597524933,636.182952459133,-12.7194377930421,60.74003006926,2.917578688300182,-0.333883658637017,6.98319557222118,114.134240375481
360.222187,55.06545661929847,38.115779042989786,636.241844970762,-12.7512869533039,60.7558903872902,2.944625581449145,-0.318553886954085,6.9843329204892,114.103606371308
360.242807,55.06545406582164,38.115798859564826,636.302805798351,-12.7707015166595,60.7760641495667,3.048041379446431,-0.270962355657679,6.9672177982255,114.073359143343
360.262294,55.06545166412816,38.11581750952733,636.360380915041,-12.8027132031347,60.7973029694701,2.8787558345015896,-0.305002814472056,6.98708091738018,114.041920467428
360.282152,55.06544921190747,38.11583656004623,636.419170519769,-12.8228592287682,60.804462411467,2.93948023639814,-0.28500719160796,6.9603736200407,114.012238159837
360.302152,55.06544673679357,38.11585579363133,636.478273653403,-12.8423163589388,60.8195475698958,2.9551566817019648,-0.336783105605079,6.98665860330604,113.981819993285
360.322154,55.06544425402179,38.11587508893476,636.537105638953,-12.8648405608769,60.8344618921887,2.9415992775000177,-0.264214967704292,6.96370830046871,113.95318498821
360.342156,55.06544179272184,38.115894218344216,636.595010710118,-12.8744063257341,60.8409791563027,2.895253558250488,-0.326648944008573,6.96653766552559,113.921822965783
360.362152,55.06543932042586,38.11591343396612,636.652918182031,-12.9009986610343,60.8602029857247,2.8953735956520177,-0.288840529309517,6.97232258146248,113.890549255262
360.382152,55.06543684682971,38.11593266022464,636.710763477921,-12.9009481637438,60.8614468122011,2.8922647944966684,-0.339388187378645,6.95296843558501,113.864208125367
360.402153,55.065434374581,38.11595187631906,636.768649310586,-12.9280415602055,60.8838166811362,2.8942916332539426,-0.280916209190499,6.98333412174577,113.831879857902
360.422157,55.06543189557402,38.11597114502951,636.826915267641,-12.9263308643524,60.8817368335174,2.9132978527457,-0.366371594685742,6.96367580818781,113.804281545292
360.442157,55.06542942435451,38.11599035305548,636.885224064617,-12.9501504866869,60.8946505356428,2.915439848800361,-0.293681419933183,6.98952725337605,113.773453905395
360.462026,55.06542694333604,38.11600963684188,636.943917791962,-12.9565905883815,60.9056119519164,2.9346863672515155,-0.339868918722459,6.96222798928724,113.749385930042
360.482027,55.06542448105365,38.11602877435543,637.002247548965,-12.9667588685229,60.9083998354299,2.9164878501489966,-0.311692534671239,6.97826164102143,113.720997738659
360.502157,55.06542200755399,38.116047998156986,637.060849314477,-12.9652212449745,60.9046971983019,2.9300882755990187,-0.361494197082505,6.97597693173698,113.697701229698
360.522161,55.06541952369899,38.11606730149724,637.119636061136,-12.9731606202069,60.910375746627,2.9393373329526185,-0.350112814848069,6.9674463802232,113.673596073829
360.542029,55.06541706202152,38.11608643340038,637.177836527886,-12.9762150509211,60.9155618035418,2.9100233375004336,-0.375817060254183,6.9736652761731,113.65121554394
360.561629,55.06541462710186,38.11610536102877,637.235376099807,-12.9781305957059,60.9111663615539,2.8769785960491845,-0.363926880944932,6.94484812376792,113.632275422651
360.582783,55.0654120164835,38.1161256616526,637.297072546374,-12.9777595066125,60.921944213021,3.084822328349901,-0.357435972464788,6.96075376658103,113.614722453814
360.602029,55.0654096411636,38.11614414185132,637.353244869889,-12.990697528257,60.924896052707,2.808616175747148,-0.401780037871669,6.93667422477749,113.600381392057
360.622033,55.0654071684006,38.11616339209792,637.411792034729,-12.9910287246176,60.9322677667552,2.9273582420046296,-0.366481103542305,6.93800434744667,113.582946019985
360.641994,55.06540470645234,38.116182569606494,637.470192093016,-13.0030900624174,60.9342661433207,2.920002914345332,-0.466213333582912,6.93082975130224,113.57215601898
360.661996,55.065402236823935,38.11620181610538,637.528923978632,-13.0027640435929,60.9427485896617,2.936594280799909,-0.383027387129368,6.92023694824494,113.563067408454
360.681996,55.06539977199176,38.11622103204154,637.587731616208,-13.0183651625455,60.9537448797607,2.9403818788011904,-0.482211382258495,6.93102884807448,113.556184950679
360.701996,55.06539730629631,38.116240259173935,637.646789912664,-13.0216603770592,60.9664406313503,2.9529148227993574,-0.412437771277582,6.90730811759411,113.54960391053
360.722,55.06539483521505,38.11625953057804,637.70624241912,-13.034522523318,60.9707368150781,2.972625322803424,-0.506336208589272,6.9169665487105,113.545845261406
360.741999,55.06539236579577,38.11627879046597,637.765899367654,-13.0536938589827,60.9976943501158,2.982847426699209,-0.418279581090998,6.90062452165177,113.545264680193
360.761995,55.065389910634494,38.11629794049566,637.825404330073,-13.0604289877848,60.9999995755512,2.975248120947072,-0.536392235894439,6.90579218657806,113.544861563275
360.781995,55.06538744410487,38.11631718046672,637.88532785232,-13.0649594518952,61.0075103467623,2.996176112350213,-0.451926264175903,6.89638145863467,113.547729473364
360.801996,55.065384978803785,38.11633641204585,637.945314528721,-13.0622684989873,61.0108347924679,2.999333820054062,-0.532353019401247,6.87814662322272,113.552601176582
360.822059,55.06538249083838,38.11635582157872,638.005898175346,-13.0783225777451,61.0261969113523,3.029182331249558,-0.466582392906921,6.88975356685489,113.55916816696
360.841635,55.06538008362238,38.11637460243092,638.064533109971,-13.0730011747031,61.0242020952792,2.931746731246676,-0.550029834604907,6.86885267726471,113.568643972968
360.86525,55.06537685699457,38.1163997787216,638.143129013113,-13.0901004013165,61.0467653913702,3.929795157102944,-0.495380311532121,6.90129426880238,113.578815053394
360.881996,55.06537511259569,38.11641339107862,638.185609899722,-13.0875066771198,61.0481482880829,2.124044330446395,-0.52548970945841,6.87108226849722,113.592061779705
360.901995,55.0653726493973,38.11643261450089,638.245570259584,-13.1073259460518,61.0684934719907,2.9980179931044404,-0.475399920833482,6.89367534721761,113.604181087036
360.922063,55.06537017966776,38.11645189154507,638.305638126478,-13.1097405419113,61.0716153101815,3.00339334469868,-0.531115764256127,6.85942833467738,113.622906816194
360.941994,55.06536772157879,38.11647108159317,638.365277401612,-13.1162293815052,61.0829011965507,2.981963756701589,-0.462434024285292,6.87751651362348,113.641025086066
360.961995,55.06536527392005,38.11649019569859,638.424388199425,-13.1260005932682,61.0921408027587,2.955539890649561,-0.472626290153826,6.85486765504207,113.657242745257
360.981995,55.06536279252498,38.116509580539095,638.483898714688,-13.1320128784285,61.0969653684444,2.9755257631507,-0.469029439519531,6.84710679319144,113.67514761885
361.001994,55.065360325566445,38.1165288615678,638.542514148417,-13.1316679565789,61.0952932649353,2.930771686447997,-0.464537583565488,6.84305953638631,113.6934516471
361.022032,55.06535786945044,38.116548067871,638.600226159642,-13.1342310581237,61.1042256552592,2.885600561251067,-0.458131843888241,6.8351956354419,113.713619074295
361.041996,55.065355414287616,38.11656727282082,638.657457035373,-13.1501304267999,61.1185997158453,2.861543786548282,-0.448308851898477,6.84670806970729,113.725925537031
361.061996,55.06535295342604,38.11658652187578,638.714700197554,-13.1537898258674,61.1175509698079,2.862158109047641,-0.475838786704447,6.82839427540852,113.744223359997
361.082019,55.06535048377092,38.11660583257361,638.772370428408,-13.1656521501329,61.1374973227662,2.883511542700034,-0.442074536824748,6.84229792652231,113.757745866812
361.101996,55.06534802894528,38.11662501363098,638.830255650981,-13.1799006530595,61.1484534181834,2.894261128653852,-0.507336073063671,6.84909148991706,113.775192108503
