time,lat,lon,alt,VN,VE,VD,roll,pitch,heading
1646.229035,55.05951855126835,38.25385172893539,654.632829877181,15.1073359116175,-41.5364252874792,-1.905468786497977,0.886244192002502,2.76304459211346,292.404759483316
1646.249037,55.05952134934097,38.2538386943784,654.594691529911,15.1227227237901,-41.541473407202,-1.90691736350459,0.861506562899574,2.77550827683031,292.401901023133
1646.269039,55.05952414668239,38.25382565574688,654.556406255637,15.1347122333325,-41.5331146926925,-1.914263713700848,0.853334007705225,2.75151705247855,292.402132605654
1646.28904,55.05952696409732,38.25381251247539,654.517594843668,15.1381482882601,-41.5289772186309,-1.940570598446812,0.860352638436967,2.73608395777453,292.399387755764
1646.309044,55.05952974972181,38.25379951249532,654.478982917889,15.1539226108172,-41.5181233699053,-1.9305962889518469,0.83706044513363,2.73741232863098,292.396776210592
1646.329036,55.05953253110371,38.25378653582524,654.440231375797,15.1521390373658,-41.5122713909278,-1.9375771045986312,0.852735577944877,2.76765855486779,292.396809461875
1646.3490390000002,55.05953532754656,38.25377350092349,654.401108843682,15.1617204700213,-41.5222349796033,-1.9561266057507964,0.874955796624405,2.80071801299182,292.389061855489
1646.3690410000002,55.059538127486285,38.25376047029167,654.361814661234,15.1731981353822,-41.5188089256202,-1.9647091223987443,0.808884756142782,2.78470363900233,292.385448208353
1646.388824,55.05954055504497,38.25374919391663,654.327682453001,15.1759967592619,-41.5116001078744,-1.7066104116508996,0.822334871021792,2.77201258287201,292.383632890849
1646.409639,55.059543833383145,38.25373398740447,654.281592226875,15.1906644755211,-41.5004760097638,-2.304511306300583,0.759012717068325,2.77315401825196,292.379638480593
1646.429035,55.05954654907114,38.25372139761026,654.243511210645,15.1933209293635,-41.4915424183887,-1.9040508114983368,0.797411524527645,2.80525847681469,292.378797875886
1646.449039,55.05954935957472,38.25370836275006,654.204290139155,15.200096382733,-41.5060366081951,-1.961053574501648,0.786201313190598,2.83326392479686,292.372401141251
1646.469,55.05955216430751,38.25369533743976,654.16543402284,15.2119176725139,-41.4963095024285,-1.942805815747306,0.724172831125586,2.82355388145519,292.369070923629
1646.4890380000002,55.05955498498825,38.253682212118406,654.126709599719,15.2159495172737,-41.4931933453234,-1.936221156051943,0.72950789626635,2.81073100771405,292.367354744978
1646.509002,55.05955775958038,38.25366928230704,654.088898139704,15.2268602201525,-41.4803817737541,-1.8905730007475088,0.637213554071736,2.80834357085915,292.362394069308
1646.529003,55.05956056217954,38.25365621371991,654.050883670897,15.2347120249858,-41.4742558147092,-1.900723440354568,0.699344425259508,2.84492564979804,292.359359448255
1646.549002,55.05956335057754,38.253643213935554,654.013136188239,15.2392629873806,-41.4788942595738,-1.887374132900277,0.672341544331879,2.84377591977936,292.3520735232
1646.569001,55.05956614641346,38.25363019290771,653.975258089653,15.2548570366461,-41.4748765094852,-1.893904929295332,0.623509329326649,2.86320264674611,292.347304531004
1646.589005,55.05956897591391,38.25361703719283,653.936807030164,15.258344996797,-41.4718255832023,-1.922552974451719,0.61220773200915,2.84037241918223,292.346263109016
1646.609002,55.0595717523847,38.25360414667629,653.898963428718,15.2692302384866,-41.4566191184887,-1.8921800722978328,0.56621366232433,2.83967674680625,292.338740187729
1646.629009,55.05957456141744,38.253591117706605,653.860586636782,15.2804169195656,-41.4495816608427,-1.918839596800126,0.564604582226551,2.86726203412795,292.336366721992
1646.649001,55.05957736930746,38.25357810080715,653.822160099296,15.2811581193388,-41.4552834128009,-1.921326874304441,0.584419749051871,2.89551891240004,292.328939825687
1646.66876,55.05957978133069,38.25356691990859,653.789117450231,15.2991683949747,-41.451657733935,-1.6521324532504875,0.517420452964407,2.88056621881801,292.321407732447
1646.689675,55.05958311735333,38.25355145115618,653.743406337152,15.2987576551039,-41.4470300848547,-2.285555653946858,0.539566509512714,2.87390390189785,292.321206039288
1646.709002,55.05958578954724,38.25353905747614,653.706857803897,15.3139699847859,-41.4367695173104,-1.827426662748621,0.465819288904801,2.86937335441227,292.315880001531
1646.729002,55.05958859878819,38.25352602802232,653.668587939308,15.3233035325283,-41.4275600391589,-1.9134932294491591,0.492765306405548,2.90026382125803,292.314271880453
1646.749001,55.05959141174271,38.25351298386077,653.630510864057,15.3246724825757,-41.4374953764496,-1.9038537625533536,0.48943801395468,2.92402991764035,292.308897910739
1646.769002,55.0595942159533,38.25349998544637,653.592881409042,15.3421952426793,-41.4318844724795,-1.8814727507503903,0.423102133740615,2.91488677985219,292.30522528336
1646.7891,55.05959707524418,38.25348673908166,653.554916509702,15.3445055585344,-41.4286449910991,-1.8982449669977088,0.428285917444071,2.90032830604337,292.306173267492
1646.809006,55.05959984849788,38.25347389714999,653.518443915817,15.3560040572945,-41.4181696228166,-1.8236296942518493,0.348307886838437,2.89825198743438,292.301317580702
1646.829005,55.059602664836746,38.25346085943721,653.481689230411,15.3634799514682,-41.4087301448919,-1.837734270299052,0.378437077170476,2.92192829222864,292.300233813745
1646.8490020000002,55.05960546824813,38.253447883162174,653.445320614186,15.3602353848098,-41.420558051202,-1.8184308112495275,0.353989920757027,2.9414524558146,292.294942025612
1646.869002,55.05960828117955,38.25343486226284,653.408978731981,15.3765237247785,-41.4142977129577,-1.817094110248263,0.316589787948196,2.92797555102957,292.28839833733
1646.889007,55.05961112544038,38.253421693955325,653.372338972667,15.3791630573236,-41.4122802512827,-1.8319879657042293,0.296973039084495,2.91246638749645,292.289713404496
1646.909005,55.05961392828636,38.25340871492396,653.336392274723,15.3872145150336,-41.4007018114533,-1.7973348971963787,0.261806115547588,2.91509447718673,292.283913353001
1646.928758,55.05961631666414,38.25339765348224,653.3059473467,15.3974385655346,-41.3944501052164,-1.5222464011515058,0.254070947393569,2.92724994102097,292.281518516712
1646.952064,55.05961996544181,38.253380752206695,653.259886495529,15.3938746263651,-41.3980712352641,-2.303042558548896,0.270475153880624,2.94878850216776,292.277083116901
1646.969002,55.059622335304105,38.2533697736313,653.230335746105,15.4157253505624,-41.3972803263327,-1.4775374712030498,0.20247621920102,2.92814081042694,292.271603882091
1646.989021,55.05962516675869,38.25335665598591,653.195455908963,15.4153796436357,-41.3906628560569,-1.7439918570971713,0.191816732695469,2.91747932333193,292.272017147987
1647.009004,55.05962795244248,38.25334375142388,653.161507929415,15.4274085616573,-41.380967700926,-1.697398977398734,0.164886608489656,2.91367268189311,292.264314553764
1647.029002,55.05963076041844,38.25333074680577,653.127535766553,15.4354060146703,-41.3722608918677,-1.69860814310141,0.139379179711162,2.92666243487455,292.262358920926
1647.049001,55.059633571517146,38.25331773313,653.093652339119,15.4334414547178,-41.3788035053574,-1.6941713717017135,0.171236940141807,2.94224449616208,292.256703571451
1647.069002,55.05963638384605,38.25330472134608,653.059758023704,15.4494822241909,-41.3776511017312,-1.6947157707477345,0.0943232112210023,2.91542249553116,292.248499427308
1647.0890040000002,55.05963922072453,38.253291605254326,653.025469100115,15.4505085246785,-41.369835085632,-1.7144461794543986,0.102296429150451,2.8976101131855,292.245357136468
1647.109001,55.05964201426706,38.25327869750218,652.991601313568,15.4593493697861,-41.3640399313312,-1.69338932734604,0.0581804486686087,2.89524180462175,292.23326722866
1647.128995,55.05964446479718,38.25326737972063,652.961824410097,15.4631256771751,-41.3519217513802,-1.4888451735487251,0.060018514098198,2.90301780755184,292.227206989508
1647.149002,55.05964765443948,38.25325265330447,652.922995253524,15.4586143775569,-41.3633126458055,-1.9414578286500728,0.0780837698740919,2.9143462674336,292.216485832846
1647.1690230000002,55.05965049142213,38.25323955778965,652.888414028153,15.4713053414368,-41.3595658378015,-1.7290612685542328,0.0256367674657486,2.8800647444303,292.205080495574
1647.189003,55.05965332118041,38.25322649642047,652.853897501354,15.4725685254887,-41.3529823453479,-1.7258263399469342,0.0201492728408782,2.86308341022441,292.200185290369
1647.208761,55.05965571589057,38.25321544333282,652.824673312838,15.4823328001874,-41.3464935489819,-1.4612094258040995,0.0163531174802265,2.85382690740039,292.187148291111
1647.229639,55.059659023564,38.25320017642643,652.784288072872,15.4841363541978,-41.3369631617925,-2.019261998299271,-0.0084077207480825,2.85756664663837,292.178860163748
1647.249002,55.05966174635341,38.25318760896137,652.75102859927,15.4796409338801,-41.3452062731088,-1.6629736801007766,0.0187558207313947,2.86692261842533,292.170174429497
1647.269005,55.059664568185454,38.253174583985206,652.716546238701,15.4957802401079,-41.342743532594,-1.724118028448629,-0.0194369649215045,2.84923534148861,292.158354193038
1647.289003,55.05966740414508,38.25316149281793,652.681872319438,15.4994045327454,-41.3360359506783,-1.7336959631506943,-0.06803818376043,2.82915322405994,292.154390503959
1647.309002,55.05967019847766,38.25314859053076,652.647652384929,15.5071789303044,-41.3277796528083,-1.7109967254498315,-0.0388783576940478,2.8155020810396,292.139940330614
1647.3290040000002,55.05967301231987,38.2531355920649,652.613093035213,15.5060485670398,-41.3218173481251,-1.7279674858002636,-0.0911184426835471,2.82784254489044,292.131651015612
1647.349003,55.05967582234382,38.25312260231557,652.57843448462,15.510632770285,-41.324791069715,-1.7329275296503963,-0.093594552557878,2.85115009932953,292.120918524983
1647.369003,55.05967863350691,38.25310959554508,652.54357006559,15.525237336021,-41.3229666911234,-1.7432209514993249,-0.13442277800616,2.82405109006101,292.106235017468
1647.389011,55.05968147425757,38.25309643876261,652.508110538708,15.5261832811718,-41.3138043942533,-1.7729763440968327,-0.182304274429563,2.81333040621102,292.098930297154
1647.409001,55.05968425140583,38.2530835700898,652.473249174494,15.5337710844181,-41.3110858824062,-1.7430682107033135,-0.178545968694858,2.81386209411136,292.083223419278
1647.429002,55.05968706053723,38.25307055514149,652.437832268574,15.5355353374568,-41.3004210283971,-1.7708452959993792,-0.230291432028379,2.82436833912888,292.071776081816
1647.449002,55.05968986879223,38.25305755461584,652.402314662022,15.5371979343596,-41.3091367391455,-1.775880327596724,-0.233255260858037,2.84534422634927,292.059418391488
1647.4690010000002,55.059692681073805,38.25304455425824,652.366677572661,15.5463633218379,-41.3073345466519,-1.7818544680494597,-0.294651876840542,2.81604959549749,292.045537244488
1647.489006,55.05969552525716,38.25303143113005,652.33062082023,15.5480837466992,-41.2992212951535,-1.8028376215511344,-0.323208737977569,2.80923832727145,292.037322892144
1647.509002,55.05969831791281,38.2530185625233,652.295298768855,15.5473638218899,-41.2965281317612,-1.7661025687516485,-0.331073377296092,2.82468164590037,292.02230555231
1647.528628,55.05970073845443,38.25300741374116,652.26483146345,15.5501129805592,-41.2938891459719,-1.523365270247723,-0.366593013942791,2.83304758758122,292.010791339712
1647.549639,55.059704047537046,38.25299216692634,652.2235346951,15.5463324619452,-41.301459912031,-2.064838417499004,-0.341218275863715,2.83975015656151,292.001180645507
1647.569002,55.059706769312434,38.25297961005979,652.18998857372,15.5526865065829,-41.2992610407542,-1.6773060690013608,-0.394665184254204,2.80987330537176,291.988626356269
1647.589003,55.05970961509228,38.25296645704676,652.155380731879,15.5540714753831,-41.2892255539911,-1.7303920920539897,-0.42329931973,2.81113310518946,291.980827838427
1647.609002,55.05971240065913,38.2529535639487,652.121775700199,15.5533787783217,-41.2897224086672,-1.6802515839970056,-0.38331201807494,2.80476114875596,291.968816459864
1647.629002,55.05971520508018,38.252940574363286,652.087951986094,15.5493318438594,-41.2881622403647,-1.691185705249154,-0.437633302902798,2.82563002399015,291.957955017955
1647.649004,55.05971801291332,38.25292756891678,652.053833111977,15.5479368461175,-41.2938993052515,-1.7059437058492222,-0.402642888670236,2.83936010379336,291.949095580982
1647.669002,55.05972082166518,38.25291456841796,652.019184993873,15.5571910518929,-41.2966010509697,-1.7324059052043594,-0.436179605059522,2.82404471705288,291.935940441564
1647.6890050000002,55.0597236604476,38.25290144509233,651.983456036734,15.5595182299524,-41.2860944678923,-1.7864478569492803,-0.500493515455621,2.81048042415377,291.93159972225
1647.7090050000002,55.059726447000735,38.25288857438402,651.947875404135,15.5541116240049,-41.2832439015477,-1.7790316299510778,-0.449086425722048,2.83552066215237,291.920056590684
1647.729,55.05972925707019,38.25287559845253,651.911771515046,15.55990688137,-41.2836560409472,-1.805194454448156,-0.512253257407996,2.85437020599735,291.908478942852
1647.749002,55.05973206732652,38.25286261725579,651.875728974642,15.5646106123004,-41.2862855920125,-1.8021270201984407,-0.453388244346427,2.85604786348157,291.901654969517
1647.769002,55.05973487636298,38.25284962944878,651.840054645984,15.5702313198531,-41.2823910495462,-1.783716432902338,-0.534096834114749,2.82233260957329,291.892118571383
1647.789005,55.05973770727669,38.252836522336594,651.804675939203,15.5781749709531,-41.2692215427229,-1.7689353390494489,-0.516131522366657,2.83049424004516,291.886269840898
1647.811149,55.05974079166847,38.25282222584012,651.766631892581,15.5758027780478,-41.273934071379,-1.902202331098124,-0.496838266943909,2.85803702463724,291.875963395072
1647.829001,55.05974329085198,38.25281063579315,651.735995863457,15.5839050010751,-41.2674684731318,-1.531801456201265,-0.525680505472713,2.86508699981925,291.867236481876
1647.8490020000002,55.0597460900562,38.25279765434385,651.701677264355,15.5890575989611,-41.2742904174493,-1.715929955099682,-0.486702988149656,2.86791674349477,291.862909446554
1647.869002,55.05974889408593,38.25278465701331,651.667082811518,15.5931979385544,-41.2680449485533,-1.7297226418520495,-0.544183337078003,2.83894768727891,291.85562073725
1647.889006,55.05975171977999,38.25277157089837,651.631842179236,15.6023897946611,-41.2546046983345,-1.7620316141005787,-0.554541669286029,2.8415038023683,291.852821711042
1647.909006,55.05975453065438,38.252758561917126,651.596530154574,15.593899703683,-41.2580609597097,-1.7656012330974136,-0.514858125907563,2.87172076733237,291.845881969025
1647.929002,55.0597573097409,38.25274570316284,651.561560866454,15.6039929494362,-41.2582936086863,-1.748464406000494,-0.553118896826892,2.87178488279339,291.839529256166
1647.9490010000002,55.059760115279225,38.25273271990012,651.526397341442,15.6025992864948,-41.2593600139558,-1.7581762505983534,-0.487819327486486,2.86011637782983,291.840239519795
1647.9690050000002,55.05976292035093,38.25271973139107,651.491575578664,15.6087570704758,-41.259072439147,-1.741088138902569,-0.525144102996194,2.84444846803418,291.833711225502
1647.989039,55.05976575630311,38.25270658806217,651.456870194824,15.6181209978552,-41.2451095164957,-1.7352691919995775,-0.59283869499966,2.83126756541518,291.834093146791
1648.009001,55.059768529032205,38.25269372684794,651.423390462637,15.61132828571,-41.2444232497234,-1.6739866093473663,-0.519718662173884,2.86636541292797,291.829927191526
1648.029027,55.05977134490352,38.25268065647404,651.389759356718,15.6224527835515,-41.2494221547335,-1.68155529595424,-0.578878310706692,2.8702980116033,291.82481239923
1648.049002,55.05977412832448,38.25266772972061,651.356795140212,15.6271241433652,-41.2479583484226,-1.6482108253001115,-0.53941098273863,2.85790700653675,291.82647139527
1648.068632,55.05977653043405,38.25265656975135,651.32850365687,15.6335111918507,-41.2427106411848,-1.4145741670972711,-0.600432128654979,2.82823708140484,291.823805847686
1648.0896750000002,55.0597798443341,38.25264116987252,651.289609047996,15.642856901926,-41.2256836323284,-1.9447304436994275,-0.614498243412768,2.82976874749779,291.826440140229
1648.109002,55.05978251236949,38.25262877012275,651.258342387765,15.6363807571968,-41.2331283804542,-1.563333011552004,-0.566476024136606,2.85462024194093,291.826523416838
1648.128996,55.05978494307039,38.2526174739613,651.229846536027,15.6487035574306,-41.2300196882549,-1.4247925868971834,-0.604267111802801,2.85171309016255,291.822969072751
1648.149005,55.05978810418501,38.25260278632488,651.192706380264,15.6587763726447,-41.23031969703,-1.857007788152032,-0.578414507322603,2.83645991442047,291.828693455666
1648.169002,55.0597909003651,38.25258979915103,651.159713602171,15.6625172908522,-41.2228506544805,-1.6496389046494642,-0.623915964243133,2.81298118056727,291.829131809335
1648.189037,55.05979372284028,38.25257669551127,651.126237377604,15.6722198186901,-41.2092783955597,-1.6738112283519513,-0.635422594909875,2.80634804781853,291.834370067611
1648.209002,55.05979649492165,38.25256382799605,651.093255157254,15.6624018232491,-41.2144418790198,-1.649111017496807,-0.587876320473275,2.82748400423379,291.836931822996
1648.229005,55.05979929212131,38.25255084146112,651.059964414196,15.6760474556776,-41.2168148566814,-1.6645371529023123,-0.611050985919674,2.82539233841347,291.835845319833
1648.249006,55.05980209720992,38.25253781121444,651.026665246113,15.6753840901353,-41.218274182412,-1.6649584041488197,-0.611407455298051,2.80674568884004,291.844197206216
1648.269001,55.05980488529457,38.25252484828943,650.99374778196,15.6851321574148,-41.21019381142,-1.6458732076500835,-0.625781172067267,2.7765041492129,291.844404037314
1648.289005,55.05980769670261,38.25251176194783,650.960814181507,15.6926387860144,-41.1985998359706,-1.646680022651026,-0.659151683205927,2.76472355259615,291.852292457459
1648.309001,55.05981046277732,38.25249887540515,650.928659056904,15.6835681014831,-41.1983952791533,-1.6077562301461512,-0.624338933851849,2.7915283353747,291.857063657194
1648.3290020000002,55.0598132518976,38.25248587559118,650.896454299135,15.6994700433722,-41.2064218104406,-1.610237888451138,-0.663376520406658,2.7863325684844,291.856824211981
1648.349007,55.05981603900346,38.25247288462058,650.864461117202,15.7023599366029,-41.2008536193531,-1.599659096649475,-0.678487124205352,2.76254985459645,291.866418213249
1648.369001,55.05981882692441,38.25245989470004,650.832615928254,15.7064176584021,-41.1984223524938,-1.5922594474034213,-0.690935690665031,2.7410027359921,291.869532973973
1648.388701,55.05982124042468,38.25244865685458,650.805148276483,15.7078100728776,-41.1861178230986,-1.373382588548111,-0.743518879527618,2.73554834767101,291.877594401737
1648.409645,55.0598245001628,38.2524334906033,650.768136364432,15.698873885915,-41.1936689229974,-1.850595602547856,-0.657789283384368,2.75964147133838,291.883627377346
1648.429003,55.05982719958562,38.25242094111743,650.737503748878,15.7112869846222,-41.1958646041408,-1.5316307777027305,-0.692159512979428,2.73985974136948,291.886594363396
1648.4490010000002,55.05982999438058,38.25240795715713,650.705747718395,15.7175814279401,-41.1939457175207,-1.58780152415261,-0.686415661593547,2.71964902089538,291.897793008005
1648.469004,55.05983279800167,38.25239494082548,650.673793644776,15.7210820305647,-41.188678917321,-1.5977036809488254,-0.670833264048253,2.68984686272397,291.902983559392
1648.489004,55.059835611459526,38.252381886326575,650.641583035073,15.7261105950796,-41.17636097368,-1.6105304851464552,-0.666308097678882,2.68301930868726,291.912796715753
1648.509002,55.05983838907842,38.25236900123239,650.609642280128,15.7224135912296,-41.1817432792992,-1.5970377472513064,-0.599916552865119,2.70950192965327,291.920466516409
1648.529002,55.05984118800578,38.25235601527242,650.577329698575,15.7343090792449,-41.1817968842069,-1.6156290776507376,-0.55762483244702,2.6883290447406,291.924416930047
1648.549004,55.059843987578745,38.252343019122165,650.54489657702,15.7405870552918,-41.1843221833801,-1.6216560777479572,-0.575334241288323,2.6776700402232,291.938244901562
1648.569002,55.05984678043855,38.25233004177575,650.512442626933,15.7428958454218,-41.1755534299427,-1.6226975043537095,-0.499236358869815,2.63921643329763,291.9458899821
1648.589005,55.05984959012217,38.25231697076244,650.47970599631,15.7455604110094,-41.1691208785791,-1.636831531146754,-0.476064302472868,2.63455606586309,291.956490028495
1648.609003,55.05985235858972,38.25230408310598,650.447367494776,15.7402410341427,-41.1692575573544,-1.6169250767006815,-0.392876359272755,2.65849339222127,291.965965517462
1648.629002,55.05985514775541,38.25229110031372,650.414706089127,15.7532241402406,-41.1766467661888,-1.633070282451854,-0.334100082564034,2.64227116295478,291.969761006715
1648.649002,55.059857939355744,38.252278117066936,650.381936158008,15.75795773214,-41.1729483181242,-1.6384965559495868,-0.325358352408908,2.63519996783962,291.982653396435
1648.671151,55.059861041771455,38.2522637127205,650.345425868224,15.7600030757466,-41.1680817517872,-1.8255144892009407,-0.236727758187045,2.60095310788972,291.988806353579
1648.689006,55.0598635557829,38.25225206460632,650.315769032663,15.7597176803904,-41.1595492695258,-1.4828417780506695,-0.190485872241176,2.60036189285113,291.996222168386
1648.709002,55.059866336074,38.25223920064224,650.282888394604,15.7545498080111,-41.162103275241,-1.644031902947063,-0.101281304902208,2.61958291051103,292.004189344845
1648.729003,55.05986914241521,38.25222622433101,650.249600642914,15.761805676066,-41.1704398162147,-1.6643875845034015,-0.0396418418103699,2.611633763135,292.006308636013
1648.749002,55.05987194833913,38.25221324691074,650.21620655342,15.7702725259878,-41.1672160996064,-1.669704474699074,-0.0067263107955905,2.59496630376244,292.015701419651
1648.769002,55.05987475064568,38.25220027189306,650.18273221601,15.7663270817686,-41.1624271387707,-1.67371687049922,0.0925494247445594,2.569603101982,292.021246384257
1648.789009,55.05987757728862,38.25218716130944,650.148824128773,15.7672592341452,-41.1518471601233,-1.6954043618511605,0.161485058463926,2.56814761517975,292.026339701283
1648.809002,55.05988034148425,38.252174323796304,650.115485571842,15.7688495920957,-41.1569733626996,-1.6669278465485604,0.258726884004855,2.58703179287467,292.033126274338
1648.829007,55.05988313592112,38.25216133885689,650.081554692329,15.7756046437047,-41.1576256543094,-1.6965439756518208,0.364562292161666,2.57440103498044,292.034058516218
1648.849011,55.0598859311505,38.25214835297128,650.047338596936,15.7882431735354,-41.1596188102659,-1.7108047696467563,0.363330703837907,2.57360557393168,292.039627115362
1648.869011,55.059888724975785,38.2521353861135,650.012818336084,15.791860874901,-41.1435622017476,-1.7260130425995612,0.46767890236128,2.54033254605815,292.041681900117
1648.889152,55.05989158588709,38.25212212815941,649.977114752263,15.8005652001356,-41.1365954664989,-1.7851791910516113,0.518135399963494,2.55727289425127,292.041980136516
1648.90869,55.0598939396384,38.25211123245507,649.947534002302,15.8055842566848,-41.1404332497982,-1.4790374980520935,0.645375114313767,2.57048704749802,292.045326260963
1648.92966,55.05989722004208,38.252096055854,649.906131749401,15.818801165001,-41.1419513079101,-2.0701126450489937,0.704293921933149,2.54668786617063,292.042364641311
1648.949031,55.059899929441855,38.25208352050964,649.871897524917,15.8318447491405,-41.1281754783343,-1.7117112241976429,0.71867877577103,2.53033057691779,292.044821644915
1648.969031,55.05990273304205,38.252070540806365,649.836552318587,15.8309519933716,-41.1232247016829,-1.7672603165010514,0.858596758092148,2.52392557413561,292.042284602171
1648.9890400000002,55.05990555768289,38.25205744928001,649.801098112645,15.8359430399373,-41.1161873049123,-1.772710297098001,0.870991438994526,2.5275065396905,292.038064777705
1649.009037,55.05990832913911,38.25204459453299,649.766369369883,15.8459371488641,-41.1199555538516,-1.736437138100655,1.05279238838066,2.5315754422856,292.037344735012
1649.02904,55.05991112466103,38.25203162559061,649.731254460141,15.8493920094181,-41.1230056721848,-1.7557454870996023,1.1313206112288,2.52097318851583,292.030998358516
1649.049045,55.05991392150391,38.25201865514359,649.695894945995,15.8626070649688,-41.1167970069296,-1.7679757073040037,1.08804282968423,2.51125030000742,292.028871023596
1649.069043,55.05991672307886,38.25200567462013,649.660103771071,15.8631819326525,-41.1081790826839,-1.7895587461964624,1.19984476527347,2.47600501288876,292.025391902297
1649.089054,55.05991955073885,38.25199259036645,649.623506945233,15.8687749420737,-41.0985324690226,-1.829841291902312,1.23082631357365,2.47891881876552,292.019163097532
1649.109076,55.05992234500578,38.25197967285969,649.586997297462,15.8787027785063,-41.1049584241939,-1.825482388551336,1.31588676727431,2.50454113578309,292.015857539474
1649.128995,55.05992475770756,38.25196852348104,649.555334088688,15.8834353512291,-41.1075925650865,-1.5831604386960407,1.37437132668857,2.48594751423902,292.007095923701
1649.149061,55.05992794195993,38.25195380641257,649.513550087192,15.8978203498878,-41.1032896699321,-2.089200074800601,1.34840826158395,2.47575325833028,292.003556753323
1649.169697,55.05993083199876,38.25194043870446,649.475832830999,15.8949060087383,-41.0930750056313,-1.885862809649552,1.41481030192399,2.45133739708354,291.998111525618
1649.1890950000002,55.05993356742944,38.25192777116069,649.440455402222,15.9004627463501,-41.091036778879,-1.7688714388498283,1.43666630393589,2.46209576882156,291.986832026314
1649.20906,55.059936336229136,38.251914936009626,649.404917206526,15.9096399142694,-41.0926437394295,-1.776909784803138,1.47928968508698,2.47291727731262,291.982639292861
1649.229064,55.05993913109583,38.25190197041263,649.369222556271,15.9125903272344,-41.098855893427,-1.7847325127490876,1.5269993661882,2.45798901934946,291.97264176477
1649.249063,55.05994192496112,38.251889003615695,649.333619680924,15.923152555125,-41.094654456341,-1.780143767348363,1.47099832883422,2.44587037486142,291.966801303877
1649.269066,55.05994471971408,38.25187603068347,649.297983956289,15.9144249572694,-41.0842942974136,-1.7817862317485833,1.54316566825623,2.42399399680857,291.961550044876
1649.289105,55.05994753913843,38.25186294485787,649.261909607759,15.9178235827431,-41.0921302306352,-1.8037174265032263,1.54265921614936,2.44573951153343,291.952195087006
1649.309075,55.05995030848495,38.25185009564597,649.226255423121,15.9195426518345,-41.0941819841151,-1.7827092319009807,1.60418772072711,2.43856462395101,291.948622773501
1649.329079,55.059953115582005,38.25183707785785,649.189791961591,15.9207411381674,-41.1010077487696,-1.823173076496687,1.60432567642907,2.41668525712433,291.938266572964
1649.349077,55.05995590655999,38.251824143707815,649.153116138325,15.9299027504955,-41.0926956705298,-1.8337911633011568,1.57287041516065,2.39780250419906,291.935310931427
1649.3690840000002,55.05995870737106,38.25181117521487,649.115789345614,15.9178069593789,-41.0918012553907,-1.8663396355520945,1.64074351122675,2.38396101877718,291.933688729038
1649.389082,55.059961530838144,38.25179811414701,649.077582831827,15.9185063971825,-41.090200161623,-1.910325689345882,1.6482652647287,2.39291166349941,291.925000431213
1649.409084,55.059964315884464,38.25178523789069,649.039499122132,15.9227807467241,-41.0941472347941,-1.9041854847500872,1.66639119538097,2.39695024860519,291.923609123048
1649.42909,55.059967120774765,38.251772270299405,649.000976916816,15.921073114729,-41.1011138594117,-1.9261102658049367,1.68078871176238,2.38674337702052,291.91812819078
1649.4490950000002,55.05996992386054,38.25175930476281,648.962543139408,15.9284447894759,-41.0995872282096,-1.921688870396565,1.62933952794552,2.37024291703981,291.918087113041
1649.469722,55.05997280981882,38.25174594221074,648.923285065658,15.9167492590345,-41.0958161794103,-1.9629036875016936,1.66500754480643,2.3510654057963,291.919883949342
1649.4891,55.059975531872496,38.25173332145653,648.886696202664,15.9220465167299,-41.0958295515471,-1.829443149699728,1.70167584096335,2.35454677703224,291.915648601938
1649.509096,55.05997830363221,38.25172045834891,648.849693066288,15.9249091446731,-41.1029523608331,-1.850156818801452,1.66285493033058,2.37121856242259,291.921751114443
1649.529097,55.059981095738095,38.2517074965598,648.81239873566,15.925586926168,-41.108271371552,-1.8647165313950609,1.65770143405377,2.35982038949271,291.92086977989
1649.5491000000002,55.05998389432845,38.25169450841445,648.774714229946,15.9378638443048,-41.1040738352199,-1.884225285704133,1.61819946216672,2.344107394774,291.925739887113
1649.569103,55.059986679681806,38.25168159340642,648.736624785777,15.9251914504627,-41.0990803354403,-1.904472208445896,1.65835748362234,2.34256129522504,291.933803490525
1649.589109,55.05998949951972,38.25166853648271,648.697252024969,15.9299669678345,-41.1036652251199,-1.9686380404039028,1.67066017726354,2.35360985989006,291.934231930465
1649.609107,55.05999228333899,38.2516556615202,648.65764590507,15.9334798989457,-41.1029920826308,-1.98030599494814,1.63913022688494,2.369654568214,291.944446099121
1649.62911,55.05999508403914,38.25164271882621,648.617201844112,15.9364043555406,-41.1114828897637,-2.022203047903304,1.64528858459575,2.34979965458464,291.948836612985
1649.649114,55.0599978908645,38.2516297533708,648.576207243504,15.940390702331,-41.1076898429876,-2.0497300303986776,1.61572159656611,2.3458773021939,291.958941565667
1649.669114,55.06000069541424,38.25161679911837,648.534922541749,15.930348865385,-41.1056990222398,-2.0642350877494664,1.64907515914845,2.33748771046788,291.971902310098
1649.689124,55.060003132501855,38.25160553942581,648.498892818837,15.9310751090566,-41.1103552575585,-1.801486145598119,1.6609643108458,2.36048411087027,291.978113533245
1649.709119,55.06000593016252,38.251592609632034,648.457484697884,15.9346594539921,-41.1144177224486,-2.0704060476532504,1.64736920195974,2.37635016103067,291.992182685538
1649.7291260000002,55.06000873315594,38.25157965047004,648.416086954695,15.9317569443095,-41.1216986320481,-2.0698871594504453,1.64169633823978,2.3614258924025,292.001514197402
1649.752155,55.06001233029085,38.25156301243842,648.36332761146,15.9410639581108,-41.1135650180254,-2.6379671617462463,1.62156119516036,2.34852723656617,292.016529814136
1649.769121,55.06001433440383,38.251553738982544,648.334217662178,15.9351985461531,-41.112800880823,-1.4554974640986984,1.63332854586867,2.35285633370539,292.03433469602
1649.789121,55.06001713858499,38.25154075948628,648.293918826656,15.9388308099628,-41.1126152673696,-2.014941776104706,1.65247191743153,2.36579675455463,292.044933257185
1649.809121,55.06001993103816,38.251527834689554,648.254154899895,15.9491236328692,-41.1169722280997,-1.9881963380498744,1.59656643600539,2.38800181042739,292.064270755336
1649.829123,55.06002273202284,38.2515148777939,648.214413228875,15.9510965093264,-41.1183863773373,-1.987083551000524,1.60019438652354,2.36905471128664,292.080643729795
1649.84912,55.06002553506942,38.2515019257311,648.174562481378,15.9632281422013,-41.1087282008008,-1.9925373748492348,1.55213211862161,2.35540149641654,292.099468040829
1649.8691210000002,55.06002834210586,38.25148897656578,648.134351491343,15.9628163923177,-41.1034233748635,-2.010549501750347,1.58083315563334,2.37442463094682,292.121167364311
1649.889122,55.06003115941972,38.25147600670541,648.093506662792,15.9749677690773,-41.1065448234622,-2.0422414275458323,1.58698404420493,2.39060889392556,292.135273668321
1649.909122,55.06003397283192,38.25146307596373,648.052325926284,15.989000831139,-41.1038221405992,-2.059036825403382,1.52378457075099,2.38706655127771,292.156701830269
1649.92912,55.06003678693842,38.25145015337468,648.010945619861,15.9953907752415,-41.103815746565,-2.069015321148981,1.56049583739113,2.37589142246525,292.17349815777
1649.949121,55.06003960551176,38.25143721187239,647.969512162607,16.0106912398839,-41.094529762581,-2.07167286270078,1.48882705888462,2.36085129823399,292.191795520225
1649.969143,55.06004243062301,38.2514242321399,647.928198610083,16.011457771459,-41.0821210713142,-2.065677626200113,1.54048855025926,2.36489094147934,292.213226990183
1649.9891240000002,55.06004524717707,38.25141127543195,647.887389247952,16.0231614324833,-41.0865446389692,-2.0404681065485875,1.55424037628603,2.38153136490084,292.22603070603
1650.009128,55.060048049826825,38.25139836964785,647.847060320366,16.0362904260925,-41.0832981006823,-2.0164463792980314,1.5062107613589,2.38898269526568,292.246779058216
1650.029758,55.06005095571768,38.25138498285733,647.805324414888,16.0431026976439,-41.08801125834,-2.086795273902453,1.52858471398015,2.36523964184803,292.263441828193
1650.049122,55.06005366920574,38.25137248470365,647.766227928932,16.0509092383644,-41.0711638476798,-1.954824297797586,1.46428785304684,2.33968988093523,292.279026280934
1650.069121,55.06005648325369,38.25135953327722,647.725356069336,16.0619955983095,-41.0663326026992,-2.0435929797997687,1.51201007174038,2.36268915324735,292.298453247851
1650.089125,55.06005930635363,38.25134655654222,647.683864171755,16.0666236141699,-41.072286312582,-2.074594879053393,1.52312789719151,2.384093749333,292.311787162323
1650.10912,55.06006211662344,38.25133365216313,647.642224482666,16.0794064347435,-41.0713797261994,-2.0819844544462285,1.49368022995579,2.36761293130444,292.328784009235
1650.128996,55.0600649197087,38.251320787578365,647.600626539842,16.0793885011383,-41.0702621416322,-2.079897141203446,1.54007415074007,2.35920350579788,292.344078298046
1650.1491210000002,55.06006775666968,38.25130776784368,647.558734184973,16.0964777059398,-41.0600872868223,-2.0946177434495894,1.48486845704347,2.33625052152832,292.357012876746
1650.169123,55.06007057522251,38.25129482633366,647.517594744475,16.1053470236838,-41.049017775609,-2.0569720249000056,1.5119663329874,2.34393673968591,292.374529031168
1650.189127,55.06007340494424,38.251281822074624,647.476999754831,16.1135050526677,-41.0514886769523,-2.029749482198895,1.5426978022523,2.36476367603165,292.385172379822
1650.209121,55.06007620883473,38.25126892939723,647.437365058854,16.1316235645477,-41.0467599930315,-1.9817347988521303,1.47067994267802,2.35826933566232,292.398788117835
1650.228996,55.060079025033794,38.25125598099264,647.397901977692,16.1363319027646,-41.0443086457744,-1.9731540581005904,1.52214440815364,2.34271568164059,292.410961836672
1650.248995,55.06008184394764,38.25124302901285,647.358500970324,16.1507025051523,-41.031968442182,-1.9700503683964143,1.41900140046249,2.31153144722876,292.419882793732
1650.268996,55.06008466513367,38.25123008353165,647.318921528845,16.1624656150667,-41.0241184379481,-1.9789720739538552,1.50914589824735,2.34524679636957,292.434588307633
1650.288996,55.06008749594408,38.251217117440376,647.278844915485,16.1677065843589,-41.0292369092173,-2.003830667996453,1.54557626212461,2.33585765175955,292.442462997153
1650.309002,55.06009032071344,38.25120419937733,647.238490031018,16.1822740458786,-41.022629391098,-2.017744223348928,1.46242454398925,2.35674111531809,292.454984650915
1650.329761,55.0600932479583,38.251190826689474,647.1963753563,16.1928624394703,-41.0260070449056,-2.105733735902504,1.49222092924456,2.32634507445826,292.468038367143
1650.3489940000002,55.06009598231091,38.25117834136015,647.156842851534,16.1952019421483,-41.0108042780523,-1.9766252383021763,1.43821094788106,2.30577398648012,292.478495065834
1650.368995,55.06009881671084,38.25116539865121,647.115747178677,16.209993301568,-41.0048431859303,-2.054783642847724,1.48625779402466,2.33357342912145,292.492661211025
1650.388998,55.06010165989719,38.25115240936677,647.074479822562,16.2088317912085,-41.0137868314044,-2.0633678057492943,1.4974439265067,2.33993225232082,292.503491615199
1650.408996,55.060104484965,38.25113949722444,647.033469304379,16.2251501989868,-41.008554577459,-2.0505259091521566,1.45685442317641,2.32436147125059,292.517510884674
1650.428995,55.06010731220777,38.251126572991055,646.992443657232,16.2226326641728,-41.011453318566,-2.0512823573483274,1.50070841504425,2.31167380111717,292.53346013909
1650.448995,55.06011014280308,38.25111363476271,646.951408386153,16.2279596010334,-40.9995829601876,-2.051763553947694,1.43651793986032,2.29322896415499,292.544902244224
1650.468998,55.06011297552458,38.25110069163924,646.910403933842,16.2418658543653,-40.9964437207394,-2.050222615554276,1.49140120394637,2.32053393078932,292.560853361125
1650.489,55.06011581513029,38.25108772487027,646.869386130753,16.2356006380402,-41.0073024138619,-2.050890154447416,1.50852630702225,2.3267710080059,292.57510596441
1650.508995,55.06011864425911,38.251074813194045,646.828641763829,16.2500198676091,-41.0038628317373,-2.0372183462029625,1.45587460355254,2.31070243483678,292.590510163955
1650.528994,55.060121479132654,38.25106188063724,646.787977943543,16.2479600575965,-41.0027842120534,-2.033191014299973,1.52629489680682,2.30315370239427,292.608873465917
1650.548995,55.06012431570677,38.25104894374813,646.747494485939,16.2601480946176,-40.9921471909025,-2.0241728801977388,1.4589057371823,2.28608560994336,292.622201544518
1650.568996,55.06012715177744,38.2510360106603,646.707264292521,16.2709709220541,-40.9865974742301,-2.0115096708991587,1.54050044830647,2.32045804879929,292.642536227992
1650.588997,55.06012999377261,38.25102305056136,646.667229766262,16.2709893187913,-40.9975321784424,-2.001726312948904,1.55818366045273,2.31654547086673,292.657676707584
1650.611148,55.06013348650689,38.25100712496183,646.618372871914,16.289548469457,-40.9889447720038,-2.4428447174045687,1.52499555488168,2.3003239434381,292.676377456679
1650.628995,55.06013565926936,38.25099722089629,646.588134745529,16.2930815912799,-40.988576028061,-1.5119063192457816,1.608770147489,2.29184568983885,292.698428999315
1650.648994,55.06013849526371,38.25098429912753,646.548802457045,16.303511580283,-40.9784643105087,-1.966614424202362,1.55790381332435,2.28855675898159,292.71503125911
1650.668996,55.06014133461777,38.250971370471134,646.509533125224,16.3204366767599,-40.9717434209445,-1.963466591047336,1.66235994183848,2.32216354199449,292.73876590841
1650.688998,55.06014418097583,38.25095842040256,646.470221534997,16.3249447395682,-40.9812821920013,-1.965579511352189,1.67589684444871,2.32010648784666,292.757002035307
1650.708994,55.06014702202111,38.25094550473408,646.430938379118,16.3473832267828,-40.9691287774806,-1.964157793952381,1.66431100655411,2.30055020311217,292.776332547408
1650.7289950000002,55.060149868965645,38.25093257136413,646.391411385455,16.3520942868751,-40.9659250969271,-1.976349683150147,1.72887424856172,2.29478452621208,292.80156022702
1650.748996,55.06015271823463,38.25091963544567,646.351572273438,16.3635942671173,-40.9534727618048,-1.9919556008460404,1.73788948029527,2.30577992931456,292.818856155986
1650.768996,55.06015556681589,38.25090670954319,646.311345730341,16.382537265257,-40.9516071432545,-2.011327154849596,1.79003129064285,2.3256406597013,292.841682369261
1650.788997,55.06015842591139,38.25089374188676,646.270488648199,16.3801075338163,-40.9564006070914,-2.0428541070998563,1.85299633018921,2.32843321649408,292.860718054255
1650.808996,55.060161267108086,38.250880861285765,646.229555491285,16.4051987790713,-40.9481475911535,-2.0466578456989737,1.82433947821329,2.30021129960355,292.879601657078
1650.829016,55.06016412869543,38.25086789449891,646.188235285548,16.4104094349609,-40.941143040487,-2.0660102868532704,1.89700548640261,2.30194632241747,292.903032280033
1650.8489960000002,55.06016697326437,38.250855011379706,646.147307190721,16.4242311420065,-40.9337340662144,-2.046404741349761,1.9151225367196,2.31496618390089,292.9175881126
1650.869003,55.06016982900154,38.25084208457592,646.106604510114,16.4435445507497,-40.9279672236971,-2.0351340303477627,1.9376954303937,2.33526314791523,292.939560536485
1650.889831,55.06017279495463,38.25082866638025,646.064948097028,16.4460732206105,-40.9340144854034,-2.082820654300121,2.02379263278387,2.34131683176615,292.955616513616
1650.908997,55.06017554665818,38.25081622368482,646.02678479339,16.4677804143213,-40.9258107238935,-1.9081651819021768,1.98592182696498,2.33460469162563,292.972492446995
1650.928995,55.06017840747146,38.2508032930052,645.987415653119,16.4734909956994,-40.9157469934279,-1.968457013549596,2.0473111809705,2.3075142931274,292.994029948574
1650.948996,55.06018126829488,38.25079036681951,645.948172462871,16.4843384918028,-40.9090610941755,-1.962159512402195,2.06114427483181,2.32781223798362,293.007612021534
1650.9689950000002,55.06018412982436,38.25077744102367,645.908856200331,16.502897574762,-40.9052571396835,-1.965813126997773,2.09341494234101,2.34927932650541,293.027533439901
1650.988998,55.06018699557115,38.2507644991077,645.869254367374,16.5096731370071,-40.9096490978234,-1.9800916478516228,2.1567743698462,2.34948454958403,293.042355055382
1651.008996,55.060189849215,38.25075161608631,645.829601605193,16.5293770712249,-40.8992314874907,-1.9826381090467748,2.14436160799293,2.34390068916651,293.059129645453
1651.029,55.06019271040076,38.25073870537924,645.789703481262,16.5377033206888,-40.8946339627042,-1.9949061965519377,2.17791623356555,2.31960110356513,293.078477412652
1651.048998,55.06019558005902,38.25072576495343,645.749624629642,16.5458213417646,-40.8856444535217,-2.0039425810011835,2.22909045726124,2.33121856308246,293.089700018243
1651.068994,55.06019844162013,38.25071287160619,645.709674751136,16.5599563674911,-40.8818625231572,-1.997493925296112,2.23252495112249,2.35103639188407,293.106061824344
1651.0889980000002,55.06020132331416,38.25069989988124,645.669528706345,16.5663294865638,-40.8869159599277,-2.00730223955361,2.27609057967131,2.3601196913508,293.118921342373
1651.108999,55.060204194553954,38.250686986687086,645.629619016591,16.5851718995494,-40.8776421559513,-1.995484487696331,2.26009786452948,2.32943099673788,293.129294407738
1651.128996,55.06020704938538,38.25067415686986,645.59000867237,16.595265157299,-40.870148202863,-1.9805172110523013,2.30093799045013,2.33725835666782,293.144768478144
1651.148995,55.06020994685461,38.25066114344183,645.549860799183,16.6065161976652,-40.8658352047742,-2.00739365935192,2.3596146573089,2.33950980596251,293.152281474425
1651.169002,55.060212813979135,38.2506482725201,645.510168685635,16.619069726826,-40.8609893677136,-1.9846056773985763,2.33707902344696,2.3581495206449,293.165566671046
1651.189829,55.06021578662581,38.2506349330042,645.469036398838,16.6305338688912,-40.8638039498711,-2.056614339846874,2.3928206538099,2.36566597658267,293.17393744916
1651.208996,55.06021851627708,38.25062268942955,645.431287723226,16.6541318912504,-40.857385169349,-1.887433780603942,2.36601417410492,2.35302968667693,293.181787576189
1651.2289950000002,55.0602213645031,38.25060992146094,645.391930825328,16.6586929090107,-40.8419114986948,-1.967844894898008,2.38849840609273,2.3352341183523,293.194731911332
1651.248995,55.060224215836165,38.25059714899192,645.352572995839,16.6716107572639,-40.8403644229608,-1.967891474453154,2.43527929816665,2.361976739798,293.199022286564
1651.268995,55.06022707885992,38.25058433539628,645.313105619269,16.6904164949916,-40.8339219659834,-1.9733688284986783,2.41457276987087,2.37659247192097,293.208493508063
1651.289021,55.06022995960387,38.2505714552466,645.273450499537,16.7039430640003,-40.8384228879048,-1.98275598659734,2.46429408202534,2.37439889512418,293.214405604431
1651.308996,55.060232835823136,38.25055860730569,645.233880128416,16.7213498224814,-40.8239505237622,-1.9785185560522225,2.40708666441126,2.33861668163212,293.217551215385
1651.328995,55.06023573179431,38.25054568152049,645.194009388093,16.7354761019328,-40.8102215530655,-1.993537016147684,2.47324907030311,2.36023904860738,293.226640509711
1651.348995,55.06023863315575,38.25053274048718,645.153984610071,16.74650304892,-40.8120926589843,-2.0012389011014875,2.50661096808317,2.36626436829118,293.22938145827
1651.3689940000002,55.06024153489872,38.25051980498789,645.113823584007,16.7643525326897,-40.8046566758559,-2.0080513031984992,2.49930383255284,2.38283683870895,293.234610232879
1651.389003,55.06024444356302,38.25050684448266,645.073390653598,16.7746464797098,-40.808976386516,-2.021646520449849,2.54353873074593,2.37883079417859,293.23816699701
1651.408995,55.06024733569808,38.25049396308932,645.033022492301,16.7890356097976,-40.7952537583547,-2.0184080648505187,2.49885466383228,2.34463546007956,293.237953089864
1651.428996,55.060250235183545,38.25048105455967,644.992422057611,16.8030261219677,-40.7873997215272,-2.030021734503862,2.5381268290659,2.36647745553012,293.243263988161
1651.448996,55.060253132560526,38.25046816115129,644.951757284812,16.8057360163091,-40.7877505102118,-2.033238639950241,2.5869822275897,2.38557772448028,293.243195563794
1651.471154,55.060256712737726,38.25045223736507,644.901433392862,16.8288746440972,-40.7839470400634,-2.516194597495769,2.54532099976929,2.38613004883836,293.244804975914
1651.488999,55.0602589403514,38.25044233420056,644.87010270781,16.8322700900105,-40.7850125314344,-1.5665342526006043,2.63414783198454,2.38351344675952,293.245701936816
1651.508995,55.06026183365241,38.25042947819859,644.829385794331,16.8454064501894,-40.7759690264207,-2.035845673952963,2.54549650006888,2.34022745527711,293.242520534042
1651.528996,55.06026473919548,38.2504165768088,644.788456488502,16.8603817194304,-40.7649010138738,-2.046465291448385,2.62443918579498,2.36487668444024,293.245842863784
1651.548994,55.060267646840494,38.25040367678728,644.747442892561,16.8613404399159,-40.7693225664317,-2.0506797970483603,2.70140031880114,2.35471247157518,293.244016870246
1651.568996,55.060270557767645,38.25039077458848,644.706313797264,16.873188172661,-40.7642677304796,-2.0564547648518783,2.63107258644498,2.38564999121117,293.243147638628
1651.58903,55.06027348517895,38.250377813046704,644.664873049722,16.8887233224806,-40.7693054385674,-2.072037377098468,2.6657868889851,2.37169716032538,293.241286724329
1651.608995,55.06027638644501,38.250364978692566,644.623757776519,16.9003521112217,-40.7576278540415,-2.055763660149524,2.6118279135825,2.33977489407794,293.236882190694
1651.628996,55.06027930376389,38.25035208109134,644.582423038761,16.9137367341886,-40.7442590760378,-2.0667368879003334,2.64830717542936,2.36300976268898,293.236830023015
1651.648996,55.06028222162325,38.25033918519083,644.541141593682,16.9172586909103,-40.7526276357364,-2.064072253949689,2.67092313439909,2.37640899334002,293.231691402812
1651.668996,55.0602851390835,38.25032629144773,644.499979719689,16.9372340763455,-40.7456649914396,-2.0580936996509536,2.62400809930879,2.3743177523135,293.226855569785
1651.689027,55.0602880704048,38.250313333913,644.458782321325,16.9440724997446,-40.7500229578554,-2.0598699182016844,2.66073520711537,2.36219401963181,293.223691590503
1651.709789,55.06029107952551,38.25030003323075,644.416639173908,16.9486908113325,-40.7363920965411,-2.107157370846835,2.57496659113873,2.3344711251671,293.215222106599
1651.729007,55.06029389068368,38.25028761400139,644.377358464816,16.9641382036292,-40.7288878973354,-1.9640354546027083,2.61572992488276,2.35914941916987,293.211682107059
1651.749012,55.06029681498607,38.25027470738237,644.336542474128,16.9566755397795,-40.7379094474082,-2.040799534398729,2.62224642198465,2.37308207464528,293.205946172546
1651.769007,55.06029973961539,38.250261817898526,644.295721745525,16.9727811791477,-40.7378223523072,-2.041036430148324,2.58386565348132,2.36490404192978,293.19799594059
1651.789009,55.06030267729502,38.25024889447484,644.254682355108,16.9730878590639,-40.7393756993912,-2.051969520852026,2.61524056101941,2.35387840316103,293.192789958615
1651.8090100000002,55.06030560536357,38.25023603375548,644.213789125624,16.9799261163479,-40.7296934498541,-2.044661474201348,2.5495706568123,2.32837258474675,293.183131218295
1651.829018,55.06030854586543,38.25022313222766,644.172821632295,16.990732827305,-40.7238127410825,-2.0483746664467617,2.5848952319789,2.35360461999269,293.179943464962
1651.849019,55.06031148518378,38.25021024303711,644.132057671323,16.9838591188871,-40.7325475199211,-2.03819804860359,2.61527896565723,2.35908343853224,293.173651852504
1651.869022,55.06031442541044,38.25019735035359,644.091556093807,17.0058304652033,-40.7289666010682,-2.0250788758005456,2.55032141996433,2.34423108162346,293.166007846247
1651.889057,55.06031736890216,38.25018443823114,644.051345433508,17.0094261999503,-40.7266446715494,-2.010533014947669,2.61890473301561,2.32885209883327,293.162253840676
1651.910005,55.0603208370424,38.25016922181632,644.004177272377,17.021956809187,-40.717305541107,-2.3584080565512977,2.54013995067105,2.30845722506531,293.151233530385
1651.929998,55.06032374563812,38.250156465195545,643.964501190398,17.0410073763115,-40.7048661025341,-1.983804098949804,2.60063171650024,2.33234496722942,293.14598970725
1651.95,55.06032668346839,38.250143591436405,643.924046039288,17.0437713455671,-40.7147209132469,-2.0227575554997657,2.6105534506215,2.33646612622797,293.136728759518
1651.969998,55.06032962483133,38.25013071960104,643.882903865451,17.062028653894,-40.708343007869,-2.0571086918494075,2.56866806113681,2.31946700949053,293.127364889584
1651.990005,55.060332604683246,38.25011770156752,643.840406482459,17.0698614648453,-40.7104026265486,-2.1248691495998173,2.60744815258749,2.30273061875895,293.121328498894
1652.010001,55.06033552329743,38.25010496906896,643.798228975189,17.0764362038153,-40.7023363938839,-2.108875363501284,2.56446636642153,2.29190096240854,293.109863319936
1652.030015,55.06033847963898,38.25009208422915,643.755304500477,17.0873680115478,-40.698178480465,-2.146223735599051,2.59609012823621,2.30479562307311,293.103623016756
1652.0506340000002,55.06034152585241,38.250078814364365,643.711238299264,17.0832709563573,-40.7062935334619,-2.203310060650665,2.60803055819915,2.31292718689233,293.093070417422
1652.069999,55.06034438375534,38.250066365299766,643.670389873477,17.1019736909984,-40.7065862103511,-2.0424212893487947,2.56613677464269,2.2967892877244,293.082616876969
1652.090004,55.06034737041141,38.25005335148808,643.62847408561,17.0987989681887,-40.7088800816354,-2.0957893933484684,2.57626336904424,2.27911834860928,293.076872945017
1652.110001,55.06035029785493,38.25004059387219,643.588007549158,17.0996691858081,-40.7047876850548,-2.0233268226036216,2.56520230874506,2.26418441503486,293.062088375674
1652.129993,55.060352874670734,38.25002936577189,643.552689789805,17.1095026897384,-40.702650007687,-1.7658879676503147,2.54452505271938,2.27622634673297,293.054876520909
1652.149998,55.06035621418183,38.25001482075675,643.507042581622,17.1004483570589,-40.7113089663615,-2.282360409145668,2.5794028344531,2.29567237761389,293.044435768385
1652.170002,55.06035917322746,38.25000194297018,643.466432606911,17.1176388050852,-40.7151541972437,-2.03049873555301,2.51447255793606,2.28994937607055,293.03033350173
1652.190002,55.06036216631143,38.24998892976779,643.424984600525,17.1182537780752,-40.7120336011315,-2.07240031929814,2.51654068753882,2.26043252210026,293.023061128516
1652.210002,55.06036510296168,38.24997617265696,643.384037593413,17.1223624993123,-40.7075507700618,-2.0473503555990646,2.49253073769118,2.26407894569478,293.008362591212
1652.230002,55.06036806718474,38.24996330358812,643.342585075828,17.1278767301918,-40.7053303810453,-2.072625879253565,2.45848999335495,2.27552907082893,293.000381364021
1652.249999,55.060371033659685,38.24995042965526,643.301139951574,17.1229365901024,-40.717388832004,-2.07225621269913,2.4912008948349,2.28785921314058,292.988170375354
1652.270001,55.06037400254655,38.24993754721415,643.259861282463,17.1350389029147,-40.7163024454292,-2.0639334555482947,2.42796412077273,2.28051061278059,292.975464090853
1652.290003,55.06037698965274,38.24992458532064,643.218641211555,17.1380882702332,-40.7164031358218,-2.061003545401263,2.40228851216396,2.23371578446204,292.96875035413
1652.310016,55.06037993605766,38.24991180002425,643.178164940993,17.1336963120701,-40.7147880356843,-2.023813528097662,2.39928397000958,2.22776028007892,292.957124669992
1652.333021,55.06038335792278,38.24989695302419,643.131136194715,17.1323822344799,-40.7141456684627,-2.351437313899396,2.37282666503595,2.23609741089562,292.951828108116
1652.350001,55.0603858672044,38.24988606754749,643.096474800035,17.1256204692383,-40.7279564460439,-1.7330697340014467,2.37017525808773,2.25409146216688,292.945170786255
1652.369998,55.0603888307057,38.249873214794775,643.055173361265,17.1377346683019,-40.7270982139187,-2.065071938500296,2.33687022531553,2.22973013919868,292.936917255508
1652.390007,55.06039182754545,38.24986022202704,643.012878205721,17.139843348095,-40.7318126391092,-2.114757777201248,2.31153262237738,2.20909544451971,292.93607674708
1652.409999,55.06039476656622,38.24984748548304,642.970998437544,17.1318047197293,-40.7273621774478,-2.093988408847736,2.32695402641116,2.20416536309216,292.93088484226
1652.4299990000002,55.06039773952555,38.249834608531046,642.928418827464,17.1338482738839,-40.731331095924,-2.1289805039998555,2.29349999758278,2.21606337414366,292.92989808393
1652.4499990000002,55.06040070935792,38.24982175289056,642.885854132174,17.1272393440982,-40.7415326178394,-2.128234764501258,2.30128670328005,2.2172422784713,292.927902558627
1652.469998,55.06040368308433,38.24980888924017,642.84339131994,17.1383282515171,-40.7461013157883,-2.1231406117010465,2.25546214855078,2.19433944180712,292.924919523906
1652.490007,55.06040668787451,38.24979590106624,642.800789147113,17.1344264256411,-40.7436952535409,-2.130108641347306,2.23154687738867,2.17301481897747,292.929637805626
1652.509998,55.06040964181182,38.24978314224106,642.759144401934,17.1282675159233,-40.745244706049,-2.082237258952091,2.2482345792425,2.17149658933384,292.928883379368
1652.529999,55.06041262272754,38.24977027609579,642.717238521745,17.1290978493361,-40.7493317808703,-2.095294009450299,2.20068175012638,2.18534515626762,292.932857161164
1652.549084,55.06041509643936,38.24975960588409,642.68246928842,17.1223107027975,-40.7632335689662,-1.7384616662525332,2.22612489484975,2.18725815635463,292.936847642785
1652.570015,55.06041859777883,38.24974451309563,642.633126919827,17.123560202714,-40.7672292702393,-2.467118429649417,2.15200968448193,2.14246077671401,292.939627950824
1652.590666,55.06042170284682,38.249731137831006,642.589137420901,17.1196639718683,-40.762811173808,-2.199474946297641,2.17879545136815,2.13710125362434,292.948421217637
1652.609998,55.06042455706702,38.24971885029129,642.548546584329,17.1106947573708,-40.7712939708959,-2.0295418286025324,2.18388049936433,2.14168027898098,292.954610223238
1652.629999,55.060427546328334,38.24970598814888,642.505953185475,17.1123198966675,-40.7776295241699,-2.1296699426955,2.17102593374222,2.15053552351652,292.965808965939
1652.649998,55.06043053603963,38.24969313035492,642.463347139849,17.1042542063577,-40.7943266278259,-2.1303022813015104,2.23722756588422,2.14835521226835,292.976996956418
1652.67,55.0604335271791,38.24968027207189,642.420793338593,17.1072942507565,-40.7925776366026,-2.127690062803822,2.19707115022984,2.12199905065689,292.985797018271
1652.690002,55.06043653878399,38.24966733076659,642.378098986059,17.1139615682753,-40.7955302793746,-2.134717626699967,2.1957676526576,2.10104694117644,292.999765813543
1652.710001,55.06043951185528,38.24965455867796,642.336164348696,17.0986150977714,-40.8003274075761,-2.096731868147117,2.23971681891305,2.09103529382956,293.012362214809
1652.729998,55.06044250509979,38.24964170218611,642.294221816683,17.0987285772835,-40.8070077189582,-2.09712660064838,2.21127249644681,2.11451333530876,293.026789705502
1652.75,55.06044550150852,38.24962883298698,642.252575553376,17.0948372128155,-40.8223806746829,-2.08231316535148,2.23687312639126,2.11251362133776,293.041532583695
1652.770002,55.06044851476214,38.24961589092962,642.211102284041,17.0945539218774,-40.8258667108245,-2.073663466751441,2.19395839048237,2.07041336770997,293.052464756075
1652.790002,55.060451522090126,38.249602973154886,642.170153931953,17.101581858951,-40.8179705124092,-2.0474176043990155,2.17339175929083,2.06550715761481,293.070167226898
1652.8100040000002,55.06045449574927,38.24959020145013,642.130016729492,17.0898412282331,-40.8255447324516,-2.0068601230491367,2.22580592760108,2.07433092732977,293.086123036871
1652.830001,55.06045749412227,38.24957732857009,642.089784619563,17.0964976873518,-40.8318474341974,-2.011605496448965,2.16829920838705,2.07466652705811,293.102177346746
1652.850018,55.06046049483941,38.24956445413951,642.049644137881,17.0929398575799,-40.8422779088987,-2.0070240840993847,2.25683264869236,2.06693744506702,293.120820020473
1652.870628,55.0604635876182,38.249551197352126,642.008277337213,17.0958537017943,-40.8446191951854,-2.068340033400773,2.15064837083224,2.01061908406448,293.136317073621
1652.890002,55.06046651476585,38.2495386648855,641.969018633012,17.1029707228095,-40.8352006162074,-1.962935210053729,2.20088255724494,2.00928313725129,293.15833105222
1652.910002,55.06046951511137,38.249525832299575,641.928566829131,17.0964447434998,-40.8441029612192,-2.02259019404778,2.27638673985341,1.98735937544025,293.178109344834
1652.9299990000002,55.06047250450732,38.249513057680815,641.887950204118,17.0992626007689,-40.8425097884506,-2.030831250647225,2.23100432544367,2.00388397030765,293.198285957253
1652.949998,55.0604755146311,38.249500203457885,641.846635809552,17.1101214009572,-40.8579285353935,-2.065719728301474,2.25095860195923,2.00333479720631,293.221181533985
1652.969998,55.06047852512639,38.24948735439455,641.804797551363,17.1113258508441,-40.8553254025314,-2.091912909452276,2.23079688557446,1.95105105532588,293.240152341076
1652.990004,55.06048157722582,38.24947433220909,641.76180172368,17.1211766728374,-40.8442167661676,-2.1497913841471927,2.23300062807655,1.93866514193805,293.265310120223
1653.009998,55.06048455761493,38.24946161741664,641.719435389854,17.1089256721917,-40.8534546863017,-2.1183166913033347,2.28954976066972,1.94681345654055,293.290630397014
1653.030003,55.06048757311948,38.24944875120284,641.676434635446,17.1209378110852,-40.8578770951855,-2.1500377204006327,2.2783996175713,1.94375799171865,293.313216322518
1653.049998,55.06049058528455,38.249435894560825,641.63359310909,17.1223301639211,-40.8691617638974,-2.142076317795727,2.34014979494672,1.93512099433834,293.341081094636
1653.069999,55.06049359499151,38.24942304066745,641.591146512051,17.124887886999,-40.8668648087588,-2.1223298519544187,2.29369503827389,1.89644266869901,293.362306006887
1653.090002,55.060496633326935,38.249410055034986,641.548840606634,17.1377612031861,-40.8574816213783,-2.115295270846218,2.29078738809601,1.88314632194188,293.387760358191
1653.110002,55.06049961039794,38.24939732701901,641.507770842169,17.1283571894026,-40.8625525711004,-2.053488223253908,2.34413611863567,1.89160846294618,293.4145855414
1653.13001,55.06050222272721,38.24938616031773,641.471858842925,17.146726006927,-40.867704914028,-1.7955999621960927,2.3035337137863,1.89748003946165,293.438684126646
1653.150628,55.06050572156498,38.249371215195445,641.423656737606,17.1472683994449,-40.872128814271,-2.410105265948914,2.35971332503629,1.88557228929103,293.466098351143
1653.169999,55.06050863268189,38.24935879724423,641.383213472419,17.1535936475584,-40.8709594467687,-2.022163259351828,2.28146132834703,1.84458788334356,293.486924907764
1653.190021,55.0605116851122,38.24934579787699,641.340284648318,17.1683936383318,-40.8593500288038,-2.1464412050534065,2.28478596371232,1.84129287413688,293.514746768956
1653.21,55.060514681597176,38.24933305356868,641.297695510865,17.163608576703,-40.8654103888753,-2.129456872648916,2.33062604115447,1.8493423807697,293.542717824443
