time,lat,lon,alt,VN,VE,VD,roll,pitch,heading
212.045654,55.08199399449128,38.15335665322416,191.153886206437,0.0158166687376242,-0.0868325410741771,0.0222163155498833,1.42495082167614,5.83890690994945,293.079635223966
212.0654,55.08199400474344,38.1533566482506,191.154428891202,0.0044065611321575,-0.07025433849097,0.0271342382504258,1.31876786296429,5.75514262215791,293.077750300259
212.085649,55.08199401234669,38.153356642699954,191.155131609835,0.0099908172457631,-0.0799671690816378,0.0351359316496768,1.45037374795785,5.85374621368759,293.075808732469
212.105792,55.081994014899166,38.1533566372866,191.155980281224,0.0101285445762856,-0.0816007234635644,0.0424335694503952,1.3051932978992,5.77838818521343,293.074125683346
212.125029,55.081994012741525,38.15335663176592,191.156884529578,8.51882814768281e-05,-0.0633194657633464,0.0452124177002133,1.45223328476628,5.80342805311318,293.076497554598
212.14625,55.08199400829589,38.15335662743968,191.157446407762,0.001087044715095,-0.0796873127019711,0.0280939091993559,1.36446798112724,5.82834334302325,293.077482372989
212.165634,55.081994002402496,38.15335662330168,191.157653943499,0.0024146751935325,-0.0688597321259013,0.0103767868509407,1.39026761014557,5.76725486377565,293.081758774663
212.185634,55.081993996317856,38.15335661947729,191.157269367831,-0.0084725401317969,-0.0685702635560541,-0.019228783401104,1.40785651903179,5.79407022943513,293.087692666007
212.205774,55.08199399149613,38.15335661623996,191.156134571243,0.0048701527998218,-0.0720630750583079,-0.0567398293995324,1.36839186097401,5.80769417665727,293.093951892842
212.225639,55.08199398845878,38.15335661420442,191.154534106886,-0.0060590707979794,-0.0694759431584182,-0.0800232178505666,1.41427358722813,5.77247114540154,293.099010768237
212.245632,55.081993987217686,38.15335661395638,191.152787667558,-0.0074832422377127,-0.0570845934820377,-0.0873219664001112,1.33314438466708,5.77740231479257,293.104823033463
212.265648,55.08199398794208,38.15335661619355,191.151268452239,0.0028678255982546,-0.082765548680302,-0.0759607659489347,1.44583527188203,5.81655111734988,293.11264206096
212.285631,55.08199399075959,38.153356621577295,191.150341247737,-0.0068622298892322,-0.0614063188829041,-0.0463602251002726,1.303009893224,5.72826116082867,293.116263367029
212.305745,55.08199399569489,38.15335663057858,191.150276843547,0.0011713115017667,-0.0758989910730945,-0.0032202094999433,1.47224233548479,5.84613636624971,293.121108083138
212.325654,55.0819940017126,38.15335664170444,191.150863840057,0.0088501671565377,-0.0813953807780657,0.0293498255004465,1.30788973227697,5.76373419448317,293.118972031541
212.345708,55.08199400784508,38.153356653583685,191.151758483531,-0.0038585524403617,-0.0665605045691725,0.0447321736999128,1.4391477529411,5.78607471232953,293.121432368621
212.365658,55.08199401278152,38.15335666419269,191.152583000905,0.002363146766414,-0.0804302997018951,0.0412258686992572,1.3586554529653,5.81146835800976,293.120928863489
212.38566000000003,55.081994015468176,38.15335667201408,191.152995598075,0.0026835459461735,-0.0702901308512917,0.0206298584998876,1.4176086285809,5.77899233621413,293.11978632612
212.40576600000003,55.08199401498981,38.153356675634775,191.152716179011,-0.0046368477037375,-0.0681668622416489,-0.0139709531993048,1.39357167960382,5.81469069273753,293.114655626001
212.426269,55.08199401191033,38.15335667544054,191.151920194536,0.0042745260475233,-0.0694326963111495,-0.039799223750947,1.34998248629221,5.8052878358482,293.112096240598
212.446235,55.08199400751672,38.15335667259833,191.150985588897,-0.0077097302825387,-0.0696633977478299,-0.0467302819501469,1.42608797614322,5.80015659982193,293.110862996414
212.465596,55.0819940029911,38.15335666834543,191.150246742096,-0.0058737441012633,-0.0629647264468089,-0.0369423400499613,1.34765761928924,5.81934639392868,293.107408364812
212.485594,55.08199399914856,38.15335666347019,191.149987432867,-0.0055778122422114,-0.0713773802292207,-0.0129654614497098,1.42987414793482,5.82811999991619,293.106004773636
212.505748,55.081993997038985,38.15335665905756,191.150486048721,-0.0112615336078787,-0.0553912329943864,0.0249307927006725,1.34390886342374,5.78123602073408,293.100331151574
212.525598,55.08199399650682,38.15335665565012,191.151515631427,-0.0005683488247063,-0.0743071099145833,0.0514791352998145,1.43743238422198,5.85896760374046,293.098182734174
212.545592,55.08199399701509,38.153356653523936,191.152722437185,-0.0070720642156968,-0.0680918717277066,0.0603402878994074,1.33057057756711,5.76806354163902,293.096402533418
212.56566100000003,55.08199399805587,38.15335665302878,191.153742472163,-0.0169270041665569,-0.0670298008651737,0.0510017489006031,1.45915237234288,5.83718487427996,293.09762558807
212.585623,55.081993999093385,38.15335665449293,191.154198382612,-0.000511204531192,-0.0822575613773607,0.0227955224502807,1.35191804995557,5.82097821167966,293.094353970599
212.60578400000003,55.08199399970989,38.15335665804308,191.153822808554,-0.0107243212525001,-0.0687151290878408,-0.0187787029005903,1.3875572370024,5.77814000374476,293.099772397135
212.62561600000004,55.08199399989954,38.15335666242145,191.152840195822,-0.0119437538137022,-0.0760713134265099,-0.0491306366001254,1.3768555743257,5.83331408891942,293.102695360133
212.645614,55.08199399982173,38.15335666615863,191.1516027176,-0.0071166245753403,-0.0803136647667085,-0.0618739110990418,1.37762701482276,5.80724793912682,293.107931511788
212.665617,55.08199399962229,38.15335666768802,191.150470928673,-0.0142025955998193,-0.0678652366521027,-0.0565894463505856,1.40230810533375,5.8095453770483,293.110833234353
212.68562100000003,55.0819939994528,38.15335666542392,191.149821666596,-0.0065230587706697,-0.0707925743198398,-0.0324631038495226,1.33478621815196,5.83133261945579,293.112569233646
212.705763,55.08199399942186,38.153356658244185,191.149939409755,-0.0063292514035367,-0.0718197733226521,0.0058871579497576,1.41567075845531,5.80276389253758,293.115543688652
212.726433,55.08199399942248,38.153356647563626,191.150705638408,-0.0145611155774827,-0.0662321776252993,0.038311432649607,1.35562242910953,5.79424147043933,293.114676403968
212.746236,55.081993999277536,38.15335663646062,191.151785659458,-0.0034695125013218,-0.0775472519125078,0.0540010525000411,1.40788723316948,5.8245259401767,293.115826132154
212.7656,55.08199399883257,38.15335662718604,191.15289866533,-0.0032599816883793,-0.0722528748537509,0.0556502936007063,1.37389133123904,5.75789089480068,293.114237399065
212.785598,55.08199399788708,38.153356621599926,191.15383848792,-0.0023339997869743,-0.0713964017952614,0.0469911294999292,1.38776519354913,5.81090300610624,293.113778691245
212.805784,55.08199399635075,38.15335662194267,191.154339550414,0.0055248528838181,-0.0796619177533846,0.0250531246990703,1.36155208420541,5.77029673363778,293.108444844123
212.8256,55.08199399463216,38.15335662697599,191.154429780319,-0.0104458273103221,-0.0687485021990068,0.0045114952499147,1.39249575220639,5.76511939493356,293.107722889417
212.845618,55.08199399318608,38.153356634715735,191.154232832865,-0.0022343806536209,-0.0849909582987706,-0.009847372699312,1.4042434897496,5.82056213882871,293.102491341226
212.86562300000003,55.08199399253967,38.15335664302992,191.153862599865,-0.0080185284387581,-0.0732145480520996,-0.0185116500006188,1.33367670926156,5.74203318039881,293.09963619373
212.88561600000003,55.08199399319799,38.15335664982709,191.153435923423,-0.0132282639072819,-0.068981611540728,-0.021333822100189,1.4216976219039,5.79636892308124,293.098975243722
212.905799,55.08199399552775,38.15335665340969,191.153041720504,-0.0120074491885308,-0.0826973387348728,-0.0197101459491477,1.36338172470598,5.78145133678132,293.096793182969
212.925617,55.08199399887148,38.15335665384817,191.152667324319,-0.020065073846278,-0.0649867529629954,-0.0187198092504559,1.43874389212077,5.75666999058937,293.093927123725
212.945033,55.081994002840986,38.15335665162132,191.15218480498,-0.0207185916295456,-0.0716255297151799,-0.0241259669493842,1.38457237517002,5.78739740631054,293.091373257526
212.965509,55.08199400542594,38.15335664843034,191.151696162275,-0.0100174194541176,-0.0737200233363531,-0.0244321352511178,1.4223876550498,5.77491077122479,293.093652352946
212.985908,55.08199400695585,38.15335664329148,191.150840364763,-0.0248318187068894,-0.0686205177876686,-0.0427898755987143,1.40733765709863,5.76692155837294,293.094310997067
213.005836,55.0819940062663,38.15335663940998,191.150031081376,-0.0174080652392219,-0.0637263784783086,-0.0404641693506846,1.3842541914241,5.81013187701156,293.096073559113
213.025597,55.08199400415672,38.15335663562696,191.149067051565,-0.0191965146990645,-0.0701160547183296,-0.0482014905500705,1.43691312481942,5.78332996159963,293.099888065155
213.045607,55.08199400149546,38.15335663328895,191.148245360157,-0.030244233279112,-0.0547465502890695,-0.0410845703996187,1.34057601003372,5.78103382375882,293.104637804984
213.065601,55.08199399929679,38.15335663329921,191.147794196524,-0.0230329113752983,-0.0730181828601436,-0.0225581816508224,1.43454795418316,5.82872921339826,293.110022294237
213.085597,55.08199399854604,38.15335663648772,191.147924660265,-0.0344853272389387,-0.0595732826657681,0.0065231870507886,1.34498556992176,5.75141536028548,293.113593697156
213.10578200000003,55.08199400004128,38.15335664344377,191.148805471028,-0.0250702193736056,-0.0714239508279383,0.0440405381496589,1.44849492481781,5.85389157257494,293.120510531176
213.12559600000003,55.08199400320579,38.15335665251049,191.150233972812,-0.0310960851533343,-0.0739794271692333,0.071425089200261,1.33400402202043,5.77524498200068,293.127826706999
213.145628,55.081994007125104,38.153356661778645,191.151954005512,-0.0319826583419185,-0.0670260546142176,0.0860016350003434,1.46139075957814,5.81150608394431,293.134795590632
213.165619,55.08199401077043,38.15335666898061,191.153655460577,-0.0217277450068437,-0.0866982914285368,0.0850727532494488,1.37333798083239,5.83196950202042,293.13756614236
213.1854,55.08199401313921,38.15335667197736,191.155033567241,-0.0236444108896744,-0.0758526145306712,0.0689053331996092,1.41947188406026,5.77192915497168,293.141832670667
213.205872,55.08199401348746,38.15335666891399,191.155903294045,-0.0317253215014184,-0.0897669085235851,0.0434863402006158,1.4188366528738,5.823310753554,293.147969594031
213.225615,55.08199401219017,38.15335666062804,191.156261499629,-0.0173791740205838,-0.0937371851093817,0.0179102792003504,1.38051221471109,5.79067451818067,293.154523409469
213.246261,55.08199401003275,38.15335664791576,191.156338010935,-0.0289907659737292,-0.0962499746483203,0.0038255652995644,1.44722708050155,5.78850983987248,293.163699035133
213.266028,55.08199400804321,38.15335663325544,191.156312976717,-0.0186822137651055,-0.0972905168963406,-0.0012517108999077,1.33893315666921,5.79626960997806,293.170423122252
213.28560300000004,55.08199400697585,38.15335661774575,191.156374191708,-0.0211646419962867,-0.108500906456698,0.0030607495503431,1.4615136159601,5.78672578657791,293.177756271968
213.30579900000004,55.08199400756612,38.15335660198672,191.156683187816,-0.0219332617768531,-0.0981479711883576,0.0154498053987595,1.32735711035599,5.76326215038294,293.18299998824
213.325618,55.08199400990579,38.15335658672117,191.15719782483,-0.0130331068199491,-0.115435926630791,0.0257318507010495,1.44495541948621,5.77802069287658,293.190511155981
213.345616,55.08199401389185,38.15335657098976,191.157830063659,-0.030675007326898,-0.103847258491801,0.0316119414492277,1.35852659517864,5.70573294482354,293.195702235064
213.365616,55.08199401937981,38.15335655438126,191.158477226436,-0.0066031288561418,-0.132274894289885,0.032358138849986,1.45700960834276,5.77615780958224,293.202857619242
213.385618,55.08199402619354,38.15335653647284,191.159035809379,-0.0169878524211502,-0.121822089710401,0.0279291471500187,1.3556511565068,5.66586584081299,293.207575904999
213.40578500000004,55.08199403423523,38.153356516577226,191.159421566761,-0.0073248854506982,-0.134414830862482,0.0192878691009923,1.4626356254129,5.75745133573057,293.21790540973
213.42566,55.08199404277666,38.15335649527172,191.159599373241,-0.0101430108196357,-0.15080712657042,0.0088903239998217,1.39587397340585,5.6913566127793,293.227567712294
213.445641,55.08199405125546,38.153356472624026,191.159571391505,-0.0047806226640029,-0.153535910654286,-0.0013990867998359,1.47992788756809,5.74928786288082,293.237525897529
213.46565500000003,55.08199405903451,38.15335644886301,191.159332095863,0.0028859575641033,-0.160078045329501,-0.0119647821009039,1.42846761604717,5.7283759585046,293.246786787276
213.485655,55.08199406540013,38.15335642442664,191.158877614827,0.0097379497943972,-0.159678975917347,-0.0227240518000826,1.47633109037699,5.75751501156881,293.256338877068
213.505848,55.08199406992415,38.15335639916384,191.158211386424,0.0173445200462357,-0.181494705817783,-0.0333114201495732,1.45639156879604,5.77035044886204,293.263390390966
213.525668,55.08199407320743,38.1533563729073,191.157459990744,0.0099797365901081,-0.175711313803186,-0.0375697839999134,1.47714385771605,5.76923479257094,293.270236829546
213.54567100000003,55.08199407656392,38.15335634313293,191.156728732267,0.0213399874307338,-0.194240848404789,-0.0365629238501696,1.4853848186376,5.80168689114936,293.277346295237
213.56566000000004,55.08199408109969,38.15335630884765,191.156166208667,0.0230141474446196,-0.194508049902766,-0.0281261799997878,1.45931401839237,5.78271685976069,293.28388734927
213.586296,55.08199408824378,38.15335626719224,191.155903121952,0.0300624017283261,-0.219396637891734,-0.0131543357497321,1.49542828756649,5.81909375720948,293.290040536462
213.606494,55.08199409873389,38.15335621859556,191.156058672455,0.0234545562971306,-0.220337077075812,0.0077775251497769,1.45416757446215,5.7863017690726,293.294688874404
213.625433,55.08199411141425,38.15335616671453,191.156472592975,0.0329747268581075,-0.231744368273484,0.0206960260001665,1.48949722231133,5.8013768161051,293.299194488746
213.645664,55.08199412753563,38.15335610467661,191.157024511094,0.0369571988008255,-0.235764755812809,0.0275959059493402,1.47423556223956,5.78471856200775,293.298917586816
213.665663,55.08199414528706,38.15335603808189,191.157492490045,0.0499294989789522,-0.260847423461216,0.0233989475503904,1.50380201583013,5.77366435698363,293.296012123439
213.685676,55.0819941643312,38.15335596657011,191.157701692244,0.0412687345121972,-0.266333766200652,0.0104601099494061,1.47607630097619,5.75401636559031,293.289925407159
213.705855,55.08199418430411,38.15335589027539,191.15750733543,0.0496299306508867,-0.277290258587457,-0.0097178406988973,1.50208936882062,5.73580998381827,293.282989337636
213.725857,55.0819942050123,38.15335581097368,191.157040826091,0.0577097094754533,-0.289935259512912,-0.0233254669510074,1.48911809710541,5.72155804066028,293.274909547779
213.745699,55.08199422694123,38.153355728662966,191.156529362806,0.0629999268084472,-0.313192124642466,-0.0255731642496925,1.51648967564759,5.69268965621954,293.265305152602
213.765706,55.08199425085115,38.1533556423286,191.156189385471,0.0665644057518013,-0.328091540567692,-0.016998866749418,1.52196448635583,5.69958256201256,293.250804271509
213.78571,55.08199427693379,38.15335555307913,191.15625034357,0.0734661466782243,-0.332198426101536,0.0030479049499376,1.54250643795119,5.660417709077,293.236304800385
213.805881,55.08199430584525,38.15335545982698,191.156900331697,0.0909627543441749,-0.351730877421775,0.032499406349018,1.53875195161948,5.67401585105541,293.220384452175
213.82571,55.08199433606183,38.15335536505696,191.158024535135,0.0904596932002517,-0.367522361902413,0.0562101719012275,1.5647287078845,5.66327328466099,293.2022415587
213.846738,55.08199436914064,38.15335526017096,191.159543112829,0.0962944798773619,-0.389710900971334,0.0759288846992944,1.61689524018444,5.68048243781926,293.180393596977
213.866346,55.081994399907614,38.153355158003016,191.161071620936,0.112011380309079,-0.395674253780342,0.0764254053507329,1.61607067096228,5.67376764482757,293.157340270519
213.885692,55.08199442938578,38.153355052226246,191.162515439014,0.126081486233437,-0.402420849105553,0.0721909038986723,1.61098807577441,5.66231077572078,293.132199243749
213.90587,55.08199445845776,38.15335493625701,191.163784040074,0.126975879962477,-0.420667551622066,0.0634300530009568,1.62171824105945,5.66632753874649,293.104771093565
213.925702,55.08199448620783,38.153354815675,191.164728920691,0.133133855465552,-0.440994228563583,0.0472440308499244,1.69545626663182,5.66704932759927,293.075688343993
213.945002,55.0819945177895,38.15335467253909,191.165390673061,0.154265942100754,-0.455448164114811,0.0330876185003603,1.67413238065277,5.66325234308308,293.043719030657
213.965709,55.08199454523808,38.15335454834739,191.165598216237,0.17460076017842,-0.46186067599855,0.0103771587987466,1.68368214369433,5.65914555328469,293.008267238727
213.985705,55.08199457908251,38.15335440038815,191.165451016204,0.163464283223289,-0.476419443217095,-0.0073600016492036,1.67253961180681,5.61601078939941,292.974938367226
214.00588,55.08199461780736,38.15335424034075,191.164900652766,0.171418006464847,-0.50966609612214,-0.0275181719004535,1.73467627835936,5.64301458787249,292.939515437216
214.025711,55.08199466003349,38.15335407424797,191.164163343405,0.178845800381035,-0.526288119435327,-0.0368654680499958,1.72957100221722,5.59986664224931,292.901805802473
214.045521,55.08199470591715,38.15335390061063,191.163490085774,0.205744883023079,-0.549578964668721,-0.0336628815503559,1.76898385655083,5.60486425302378,292.86908565939
214.06579,55.08199475590834,38.153353717379765,191.163142341283,0.199524484198344,-0.566544646310424,-0.0173872245497364,1.74014073637211,5.55663411832658,292.83492626077
214.085741,55.08199480699218,38.153353535111634,191.163406002521,0.200474606876631,-0.603660444801691,0.0131830618997241,1.82601372560843,5.53564739420639,292.800648311906
214.105913,55.08199486030137,38.15335334869283,191.164488906513,0.221137767666893,-0.622494370266373,0.0541451995999864,1.81127766667268,5.52014472005279,292.766674314415
214.12665100000004,55.081994915976885,38.1533531533427,191.166254307918,0.233688362105205,-0.649665667278641,0.0882700702504735,1.88930452797644,5.51208771950104,292.733105172397
214.14639900000003,55.08199496939059,38.15335295988871,191.168224345221,0.243779978348958,-0.680515458629766,0.0985018651505242,1.86507237345118,5.47893100706601,292.697191069591
214.164622,55.08199502603957,38.153352742303454,191.170272180345,0.255709935559473,-0.708030473295125,0.102391756199438,1.92768637752075,5.48624877979407,292.660730433672
214.18725,55.081995078753735,38.15335252233654,191.171824324933,0.271424456553911,-0.724511057685692,0.0776072294002006,1.94010093629324,5.46629105707434,292.62396366275
214.206753,55.08199512972464,38.15335228859239,191.17274522268,0.280948191218743,-0.749658568828439,0.0460448873496943,1.92067064213096,5.4649864966959,292.586487476754
214.226627,55.08199518038053,38.15335203798546,191.173150810001,0.282974710679705,-0.789854961706395,0.0202793660506017,1.99527843621411,5.46845329729582,292.552466590806
214.24663100000004,55.081995231079325,38.15335177424056,191.17322622538,0.286811635575767,-0.814002874725642,0.0037707689500621,1.98485798168644,5.45245473288817,292.523033277324
214.266634,55.08199528184362,38.15335150331277,191.173170315252,0.312158414217091,-0.837906178241601,-0.0027955063998774,2.03538458460905,5.47726532985926,292.493209539045
214.28666100000004,55.0819953332868,38.15335122826988,191.173188228092,0.312894655938377,-0.849910527644484,0.0008956419989658,1.96142933769284,5.42645273850665,292.463724800179
214.306504,55.08199538524262,38.15335095496466,191.173437500632,0.318030595186217,-0.892608910939599,0.0124636270001587,2.03221409922991,5.45951606631237,292.439221539036
214.326653,55.08199543850196,38.15335067716785,191.173843639819,0.319510215120294,-0.917004175824298,0.0203069593510463,1.97536868086127,5.43794058639606,292.414944894757
214.346646,55.08199549226351,38.15335039473008,191.174247217866,0.335008094853282,-0.946910818932524,0.0201789023492438,2.04262335271709,5.45256858957896,292.397385948938
214.366397,55.08199554576184,38.153350107470814,191.174491882743,0.348111411818303,-0.9693737189484,0.012233243850801,1.97525852225472,5.42678742692248,292.381577334305
214.38664900000003,55.081995600989295,38.15334980012703,191.174426357266,0.342922374302139,-1.01554466393506,-0.003276273851327,2.03636261444798,5.44993576975269,292.369217181433
214.406774,55.08199565616336,38.15334947872182,191.173927071769,0.349083969506293,-1.04742939851506,-0.0249642748499923,1.97302177113785,5.42476038661335,292.359403813534
214.426665,55.08199571068803,38.15334914893104,191.173133601402,0.366362708479109,-1.07752733657096,-0.039673518350014,1.95721394916861,5.43712081429667,292.355410977144
214.446643,55.081995766393625,38.15334880340896,191.172222347215,0.366642629224707,-1.11380529283315,-0.0455627093487009,2.00469207594619,5.44419754736307,292.353588552445
214.46457400000003,55.08199582500336,38.15334843475863,191.171369020333,0.369836846123489,-1.14885228627181,-0.0426663441004393,1.93299021494277,5.43813743960842,292.348170989016
214.489829,55.08199589180852,38.153348013356656,191.170777151602,0.376896812365924,-1.17199440666921,-0.0295934365496464,1.95863368431356,5.44448172541094,292.345586723702
214.506755,55.08199594294511,38.15334769251805,191.17070125443,0.382510791891592,-1.19186546208549,-0.0037948585998037,1.88528943223594,5.40445534324918,292.342968854848
214.526628,55.08199600453837,38.15334730814261,191.170963817782,0.395715289593477,-1.23013373422384,0.0131281675990635,1.89602850733427,5.42221141808342,292.342219033819
214.546628,55.08199606840007,38.15334691141231,191.171521633556,0.396506903806516,-1.25532755916727,0.0278907887008017,1.80619141380659,5.39907534622338,292.339774155905
214.566379,55.08199613285628,38.153346512304864,191.172264444478,0.40835669114039,-1.28889430712594,0.0371405460995788,1.84321737312672,5.41374550461507,292.337978352357
214.586627,55.08199620008021,38.15334609695613,191.173122367356,0.428464188545153,-1.31067290111782,0.0428961438998953,1.75525722997916,5.38741048841101,292.33532145856
214.60650400000003,55.08199626741931,38.153345681377175,191.173962833463,0.439613284876605,-1.34400552086655,0.0420233053503693,1.77137879511276,5.4035699011188,292.32767461693
214.626646,55.08199633631617,38.15334525643191,191.174687490442,0.44570395431068,-1.37475136854049,0.0362328489501351,1.65786432612322,5.38220701515416,292.313384755293
214.64640100000005,55.08199640553371,38.15334482957927,191.175167719536,0.464478532400989,-1.41083874567347,0.024011454699746,1.67178561986691,5.39307513543756,292.306223842516
214.666649,55.08199647834037,38.15334438049042,191.17530128245,0.472931435006127,-1.44079358469228,0.006678145699368,1.67421025578414,5.40819837002116,292.300365961796
214.686649,55.08199655222088,38.15334392450608,191.174957398676,0.488053613735491,-1.48035841284051,-0.0171941886989657,1.62619002411331,5.4171195583322,292.288416573665
214.70684,55.08199662962707,38.15334344675125,191.174049729625,0.496179768347608,-1.51239025611699,-0.0453834525501406,1.6024273356202,5.43361537097315,292.276198320525
214.726533,55.08199670700938,38.15334297149536,191.172800386085,0.506503912057259,-1.53817999923887,-0.0624671770012241,1.57801422426211,5.42827080294338,292.268465755655
214.744587,55.08199679106138,38.15334246091365,191.171354835059,0.521596599211917,-1.56829221309504,-0.0722775512997486,1.6064681989558,5.47006764888801,292.257627481515
214.76721100000003,55.08199687581822,38.1533419544939,191.17006734793,0.540105267641541,-1.59779651421027,-0.064374356449548,1.51930300040729,5.4706302875513,292.241307900915
214.786388,55.08199696024875,38.1533414603567,191.169167609156,0.545782773419397,-1.62927858600351,-0.0449869386997647,1.53175926972193,5.48700333521796,292.227520006834
214.80676900000003,55.08199705430986,38.153340922670814,191.168760094721,0.559478052725235,-1.65083873279148,-0.020375721750554,1.52344188799522,5.48759323025268,292.217467458041
214.826375,55.08199714684421,38.15334040281962,191.168840373652,0.581037505906501,-1.67155460274273,0.004013946549719,1.50306099339576,5.50202096425599,292.206333560109
214.846634,55.08199724509181,38.153339855616046,191.169253428997,0.594814246959322,-1.69721190346623,0.0206527672503398,1.43930166125339,5.4812584409017,292.192162091724
214.86638,55.08199734233672,38.15333931437302,191.169831644862,0.604599818034299,-1.73240679123118,0.0289107932502474,1.46452057999302,5.5152435681902,292.178535740457
214.88662800000003,55.08199744272866,38.15333875165175,191.170450499278,0.613825483512024,-1.74987407459469,0.0309427207994872,1.42403458235495,5.50706279394633,292.171045365884
214.90678000000003,55.08199754261332,38.15333818410381,191.170961403049,0.641148690261747,-1.78173912204942,0.0255451885507795,1.42349193926881,5.53070961189372,292.159533272615
214.926415,55.08199763956064,38.153337625863415,191.17135255253,0.648532666587247,-1.80738589271655,0.0195574740502024,1.36131401557452,5.54031660549766,292.142222031431
214.945044,55.08199774552649,38.15333700871281,191.171701935678,0.654722201144809,-1.83854225434664,0.0174691573988639,1.35991936307464,5.55418678488035,292.132214770867
214.966659,55.08199783938117,38.153336457216696,191.171977648818,0.666028788892497,-1.86837905253187,0.0137856570006533,1.32227410215374,5.57515713422037,292.12106118616
214.986654,55.08199793984719,38.15333586308232,191.172273084117,0.678600771872299,-1.90450378509116,0.014771764949728,1.29442239998839,5.60708602168921,292.107618822414
215.006804,55.081998042907856,38.15333525141104,191.172596288215,0.689450719580896,-1.93305365059251,0.0161602049004727,1.3254667807087,5.63516082833297,292.095527910466
215.026658,55.08199814602583,38.1533346416175,191.172880833002,0.695494330004021,-1.95775053610389,0.0142272393503617,1.26302235435967,5.65962857269794,292.083776447512
215.04665900000003,55.0819982534349,38.1533340138026,191.173055561236,0.708268281148253,-1.983729236491,0.0087364116993171,1.30702346484519,5.68862594830534,292.069348243961
215.066396,55.08199836340928,38.15333338299262,191.173038036917,0.718171155044603,-2.01475406829141,-0.0008762159495745,1.24113506895457,5.67861856886381,292.055172788287
215.084583,55.08199848372165,38.15333271037507,191.172733842802,0.735414856123996,-2.05847970912295,-0.0152097057508626,1.30442130662776,5.73808674443102,292.041056288795
215.107442,55.08199861041855,38.15333202294735,191.172086062313,0.741381970151573,-2.08978957739456,-0.0323890244487756,1.28479300463698,5.75220148774771,292.029690553052
215.1266,55.08199873238814,38.15333137606442,191.171292194907,0.770487410808949,-2.13665510851669,-0.0396933703001423,1.31460983007462,5.77492744775009,292.02325375562
215.146597,55.08199886454945,38.15333068529997,191.170418653647,0.795076970278187,-2.14647621373579,-0.0436770630003024,1.27673376779561,5.76573223719893,292.010008291428
215.16638,55.08199899719108,38.15332999740644,191.169682242643,0.799428106962252,-2.18387367631192,-0.0368205501999341,1.3979662230903,5.78756579926815,291.992859677525
215.186388,55.08199913361558,38.15332929067407,191.169223675455,0.807664502231234,-2.20754109590874,-0.0229283594009643,1.32053858077781,5.78498012175138,291.982204160263
215.206789,55.08199927414678,38.153328559204,191.169186276449,0.831664442031165,-2.24487499795212,-0.0018699502987828,1.32409848455759,5.79947317126387,291.9747414877
215.226601,55.081999410088,38.15332784693575,191.169462846421,0.848752781836785,-2.27162381459015,0.0138284985993664,1.41598560279178,5.81151330858855,291.963581905307
215.246624,55.08199954828503,38.153327117704464,191.169877720065,0.854380231698041,-2.29453229969988,0.0207436821995088,1.39194210601904,5.7927276420217,291.948603733613
215.266415,55.08199968534129,38.15332638898345,191.170246782771,0.871902135723528,-2.33051571829464,0.0184531352999783,1.37160395191502,5.80972461441374,291.94193513446
215.286614,55.08199982623149,38.15332563377992,191.170402900564,0.883030567473154,-2.35471626018241,0.0078058896505694,1.36376770698584,5.80084363326038,291.933641284634
215.306797,55.08199996803391,38.153324867962304,191.170188652994,0.901265067804119,-2.39605572025277,-0.0107123784999885,1.42443915569859,5.84612074454229,291.919823697883
215.326618,55.08200010853445,38.15332410841817,191.169653858625,0.91356116136292,-2.41019452018674,-0.0267397184501305,1.39611853549903,5.85642516693123,291.904705033316
215.34502000000003,55.08200026118329,38.15332328922145,191.168829852953,0.926662967910937,-2.44697695245613,-0.0412002836000624,1.4786666528332,5.89305994552169,291.893913096708
215.367043,55.08200040411822,38.15332253354793,191.167937393634,0.946058023930309,-2.4649952630834,-0.044622965950225,1.45607874225953,5.90531615629792,291.877265347149
215.386384,55.08200055085156,38.15332177404641,191.166998838144,0.959908948999595,-2.49664379544688,-0.0469277744997498,1.5279503005463,5.95658816779866,291.860747857758
215.40653000000003,55.08200071036152,38.15332096995436,191.16604098679,0.964691214531128,-2.52288209653043,-0.0478925677001029,1.53395188699847,5.98092919102026,291.845472598149
215.426605,55.08200087219093,38.153320172143225,191.165164304802,0.973601931367754,-2.55444283661981,-0.0438340993994756,1.60169242770314,6.03483632049661,291.820320711388
215.44660300000004,55.08200103826601,38.1533193654524,191.164374387194,0.994878846023032,-2.58441331523442,-0.0394958804008638,1.59772892577357,6.05708710860479,291.796142201939
215.466386,55.08200120543,38.1533185599009,191.163702010944,1.00803702410561,-2.60638424432406,-0.0336188124990144,1.66126006737138,6.10044930927043,291.780671076347
215.486595,55.08200138032371,38.15331771835733,191.163142135858,0.998287180193042,-2.64258537764231,-0.0279937542998709,1.74246698202952,6.16087993497905,291.769134113656
215.50678600000003,55.082001556704576,38.15331686572217,191.162730963339,1.00891810789791,-2.67256840198314,-0.0205586259511392,1.72340315419389,6.15940870821796,291.757979257037
215.526379,55.0820017284881,38.1533160273584,191.162444163022,1.02604898748422,-2.7030250635276,-0.0143400158492568,1.79742018039676,6.21079492028872,291.748599305704
215.546618,55.082001907060544,38.15331514334933,191.162218677445,1.02681342399566,-2.72652883624123,-0.0112742788502373,1.77182461904205,6.21650404274624,291.740804738137
215.566726,55.0820020826929,38.15331425695084,191.162025155302,1.03718698884472,-2.76350032420927,-0.0096761071503692,1.83747602628826,6.25164607491901,291.74066833701
215.586179,55.0820022500973,38.15331339172,191.161825557888,1.04931893489029,-2.78833056928624,-0.0099798706997944,1.8089109237213,6.23904098610368,291.739227111425
215.606781,55.08200242424633,38.15331246591984,191.161564992665,1.05519349499858,-2.81737623561907,-0.0130282611493726,1.87456125626898,6.26306899841583,291.737537690162
215.62661000000003,55.08200258961296,38.15331156379796,191.16127571341,1.05566328045514,-2.83891551622661,-0.0144639627507103,1.80286960116463,6.24692959632899,291.737292029998
215.64702800000003,55.08200275754929,38.153310628750205,191.160965948041,1.0617677098246,-2.88147854771702,-0.0154882684498147,1.88555551022875,6.2863156019469,291.739760126899
215.66723,55.08200292399915,38.15330968788802,191.160670088403,1.07002096044109,-2.91328189981586,-0.0147929818993475,1.87046257892921,6.26517094178209,291.739811918135
215.686596,55.08200308447426,38.1533087723297,191.160420641722,1.08373491270316,-2.94406714571492,-0.0124723340505283,1.89442619231239,6.2958001388509,291.742132165675
215.706753,55.08200325322029,38.15330780565703,191.160225784972,1.08326520931467,-2.96209415703803,-0.0097428374999708,1.89095760603895,6.30108873851363,291.744904337985
215.726488,55.08200342071579,38.153306846281424,191.160150335046,1.08282416674743,-2.98766611721195,-0.0037724962993479,1.87081025366879,6.27758462789717,291.747683306662
215.746597,55.08200359355413,38.1533058602567,191.160251157555,1.09845175351584,-3.0214569769761,0.0050411254491677,1.88309536352601,6.28010309405178,291.749816633542
215.766389,55.0820037670069,38.15330487834032,191.160586060693,1.10628752596971,-3.0564368912724,0.0167451568998444,1.89553894066109,6.2763987561838,291.760143838652
215.786636,55.082003947257135,38.1533038695137,191.16123138273,1.11238021304813,-3.08390616223876,0.032266101850098,1.88308647813637,6.27274694173867,291.770823132382
215.806802,55.082004128917184,38.15330286665472,191.162213916819,1.12163589291296,-3.10886614154241,0.0491267044509413,1.83502519456964,6.26266065028587,291.776099115437
215.826622,55.082004311126695,38.153301869959805,191.163461761832,1.13210544458782,-3.13117372030134,0.062392250649168,1.80315748576648,6.24782670436318,291.779798225609
215.84661800000003,55.08200449638963,38.15330085943208,191.164902694776,1.13201239952934,-3.15529144016284,0.0720466472003522,1.76200145356065,6.22479549344858,291.793169838037
215.866618,55.08200468284705,38.15329983899351,191.166436861481,1.13813823927441,-3.18812697168502,0.0767083352499753,1.76422057517837,6.24995572719023,291.805233666581
215.886618,55.08200486961909,38.1532988071812,191.167969942687,1.14279427338718,-3.21467848348129,0.0766540602995746,1.73346878090908,6.23658365504117,291.813814239076
215.906807,55.0820050582443,38.15329775012265,191.169432803666,1.17775423092205,-3.25268329925828,0.0731430489508966,1.70718926484003,6.23863105384117,291.822428021203
215.92661300000003,55.08200524269724,38.153296702890906,191.170736848354,1.17012325138729,-3.27875234485053,0.0652022343999192,1.70168803861361,6.23078847283251,291.830989835902
215.945173,55.08200541568305,38.15329571131307,191.171819236971,1.16157484747882,-3.30654105818078,0.0541194308496528,1.64999138710849,6.19211949705709,291.84115235442
215.967224,55.0820056228961,38.15329451516639,191.172903470853,1.17832125988587,-3.33317116556685,0.0542116940991377,1.65207825074759,6.17382476658779,291.853379742912
215.986385,55.08200580383898,38.15329346642942,191.173634262589,1.19087089710615,-3.37378688840786,0.0365395868001883,1.62300857200281,6.15737317900487,291.865791089758
216.00678800000003,55.08200600015093,38.15329232720449,191.174192765362,1.19961568950481,-3.3905164274525,0.0279251386501755,1.58904830445441,6.11924343969718,291.879691080762
216.02659900000003,55.082006190396754,38.15329122268985,191.174591445642,1.19848188345897,-3.41818864843647,0.0199340140000003,1.6146764697554,6.1253316032856,291.892131522071
216.04616,55.082006379661046,38.153290123666565,191.174962350146,1.21226346511779,-3.44912340530047,0.018545225199773,1.51830915897712,6.0737226752708,291.903413494454
216.066387,55.08200657754543,38.15328897464543,191.175438501927,1.22417158596965,-3.47301280528277,0.0238075890507616,1.49687673174571,6.04606757854773,291.918680821215
216.08659900000004,55.0820067768857,38.15328781751018,191.176126655033,1.23779692569836,-3.510536506945,0.0344076552991623,1.51739708405128,6.07168252569614,291.937243470276
216.106814,55.082006976713664,38.15328665902275,191.177113920387,1.23594843481875,-3.52698144300494,0.0493632677006417,1.42059152221067,6.02509557151917,291.953514532137
216.12640400000004,55.08200717247724,38.15328553076869,191.178304597102,1.25654492272059,-3.57172601365156,0.0595338357499031,1.53684721313475,6.02526621070128,291.971327283715
216.146618,55.08200737815545,38.15328435899953,191.179673229219,1.2704160652472,-3.59594128618664,0.0684316058496392,1.45588138494065,6.01108017079961,291.998702985027
216.166408,55.08200758445757,38.15328320342502,191.181050803467,1.27875704429997,-3.61930973183955,0.068878712400533,1.45116740759711,6.00973762141571,292.022189313578
216.186619,55.0820078013438,38.15328201485272,191.182391496025,1.2931181987747,-3.64545041312249,0.0670346278994316,1.46020209856992,5.99220722287133,292.038146944855
216.205177,55.08200803954843,38.153280741692825,191.183641123708,1.30801490374587,-3.67397175907294,0.0624813841497484,1.43117887842697,5.98305279082588,292.058437642351
216.22725000000003,55.08200825802606,38.15327959191527,191.184578399558,1.31555917979012,-3.70304635905341,0.0468637925010284,1.50028033234077,5.97423790781937,292.081239236586
216.24638400000003,55.08200847792348,38.15327843909875,191.185330038813,1.3202869174509,-3.72739987039277,0.0375819627493001,1.46560162549609,5.95358726515172,292.103096912924
216.266612,55.08200871239201,38.15327720187707,191.185920808261,1.33672236344919,-3.76455342978386,0.0295384723997926,1.48547587317222,5.96538124603575,292.129082548087
216.28659700000003,55.08200894097152,38.153275974502,191.186279479656,1.34352399038626,-3.79054522954677,0.0179335697509941,1.3714695370508,5.88570784926617,292.158322005478
216.306538,55.08200916480986,38.15327474141569,191.186425910285,1.35963527051337,-3.8319443430077,0.0073215314500885,1.50120863329321,5.91929215525823,292.18649914113
216.32638100000003,55.08200938451648,38.153273507803874,191.186478309217,1.36907103514639,-3.8567895479035,0.0026199465992249,1.4356134358443,5.88864406497611,292.20933870185
216.346386,55.082009607346535,38.153272247218055,191.186590584065,1.38205711417498,-3.89120701254823,0.005613742399646,1.45946258130217,5.85706095482911,292.2439198632
216.366383,55.08200983139349,38.15327098502063,191.186915592773,1.39793731473002,-3.90668287725273,0.0162504354008774,1.4592334998268,5.83438358021542,292.278537191147
216.386597,55.08201006233988,38.15326970414809,191.187616058433,1.4003300058334,-3.92681010598983,0.0350232830001573,1.45540567889365,5.84975623881708,292.308597210258
216.406818,55.08201030082103,38.15326841285425,191.188791991018,1.41012791393814,-3.93955530723119,0.0587966292499686,1.48059781420813,5.80355676132064,292.341569817633
216.426689,55.08201054153704,38.15326713334181,191.190203960058,1.41621307000442,-3.97931695550868,0.070598451999615,1.47921582961622,5.77758691883385,292.376589517329
216.44640500000003,55.08201078312589,38.15326586104686,191.191547312819,1.43775003398601,-4.03034599419123,0.0671676380505914,1.49019332510934,5.79455425176346,292.414343704696
216.466626,55.08201103410621,38.15326454026334,191.192569114937,1.45365337443497,-4.05248307079492,0.0510901058987656,1.49283625528868,5.78276544453682,292.449180305342
216.48661300000003,55.08201128255206,38.153263222693326,191.192911675887,1.46870159490781,-4.08565488272373,0.0171280475001367,1.5314226749177,5.80832863611716,292.489391073001
216.50744000000003,55.082011542383206,38.15326182489059,191.19232561623,1.47482158327201,-4.10903999009271,-0.0293029828497992,1.43683112872356,5.7626006872126,292.526745653294
216.527238,55.082011785432414,38.153260504581546,191.191145583984,1.48924848605849,-4.15093372337989,-0.0590016122998804,1.57693407857857,5.78882485512417,292.561477369923
216.546599,55.0820120269995,38.15325918975433,191.189744980557,1.50309484772291,-4.17170136210301,-0.0700301713493445,1.44447220814293,5.73779681702649,292.596464154427
216.566604,55.08201227976998,38.1532578211611,191.188427619636,1.52971618809455,-4.20379453664066,-0.0658680460503546,1.55876786569467,5.7751909034947,292.631649708293
216.58660300000005,55.08201253566066,38.15325645287698,191.187632360308,1.53799938941386,-4.23150660990166,-0.0397629664007581,1.44899818187323,5.72665748436061,292.667315017914
216.606715,55.08201279930942,38.15325506766064,191.18767117835,1.57227983655981,-4.25783182197482,0.0019409021007277,1.47630496136155,5.74703113519419,292.699443413872
216.62638500000003,55.08201305986072,38.15325371584882,191.188468308817,1.57494004260958,-4.28257402205227,0.0398565233496128,1.46405726359266,5.74230917233434,292.72998187559
216.646629,55.08201333357183,38.153252302697865,191.189915955541,1.59109938591435,-4.29839629066959,0.0723823362008602,1.38789057032348,5.69255162402444,292.758084302061
216.66661900000005,55.08201360330563,38.15325090639507,191.191776879663,1.60906738820126,-4.34179928970576,0.0930462060992454,1.4909813233176,5.74067718400959,292.790615292441
216.686618,55.08201387325521,38.15324949482463,191.193907701085,1.62703128631537,-4.3709607135485,0.1065410711007075,1.32449160936158,5.69327416201175,292.825022534694
216.706774,55.08201414449498,38.15324805378191,191.196157988428,1.63250076092102,-4.39812027106835,0.1125143671501405,1.45244606548464,5.73651811640845,292.857858237722
216.726717,55.082014411043374,38.15324661924909,191.198304108249,1.64554183642327,-4.43051145667882,0.1073059910495999,1.30567156988308,5.68148311133861,292.883457735799
216.746621,55.08201467712748,38.15324517698798,191.200206821737,1.65875323058179,-4.45717903729765,0.0951356743996711,1.28373077385405,5.67678553233172,292.913775740769
216.76662,55.0820149463317,38.15324371565139,191.201715873801,1.6685745345754,-4.49226650908345,0.0754526031997215,1.25128760936816,5.64392840372972,292.94491145647
216.786611,55.082015218150616,38.15324224614035,191.202651262365,1.68489454916348,-4.52445059097459,0.0467694282008324,1.21697689427805,5.64544479370422,292.97089552945
216.807395,55.08201550506267,38.1532407087584,191.202903314949,1.7002903607917,-4.53993525324383,0.0126026291994207,1.16325681818069,5.60471923084388,292.993844042466
216.827231,55.08201578125074,38.15323924213065,191.202664771085,1.71892284711428,-4.59031184857463,-0.0119271931993125,1.26416348291897,5.60037501521774,293.022265694409
216.846608,55.082016055446445,38.15323779709231,191.202260703951,1.73490343925588,-4.60369451345579,-0.0202033567006765,1.18670228999563,5.55653771093976,293.046090823649
216.866603,55.08201634198625,38.15323629689399,191.20195620746,1.74755546533217,-4.62910279391329,-0.0152248245498753,1.25943295900786,5.59367104180575,293.068437944597
216.88660700000003,55.08201663026888,38.1532347960224,191.202061641071,1.76219838783275,-4.65740927991477,0.0052716805498675,1.17859021048181,5.55600041440965,293.087566624236
216.90675400000003,55.08201692385961,38.153233274650376,191.202810798735,1.76736066673869,-4.70135012875543,0.0374578831994654,1.24170949584365,5.55616651494115,293.10970357298
216.926604,55.08201721572036,38.15323176855868,191.204038901781,1.79282441064282,-4.73996808402147,0.0614051523001535,1.18593356931345,5.55526650255262,293.134248115575
216.944995,55.08201749089675,38.15323035380085,191.205398895579,1.81313817737884,-4.75907010175095,0.0679996899009438,1.18049745498276,5.55057588308564,293.155918984145
216.96662300000003,55.08201781484657,38.153228694128046,191.206961225271,1.82548567661269,-4.79712150362847,0.0781164845989224,1.18874156674942,5.54738758252844,293.177791914118
216.986623,55.08201811934333,38.15322713922448,191.208121590754,1.82581993759766,-4.81745042961781,0.0580182741501289,1.1653506638329,5.52084087841845,293.196082736952
217.006775,55.0820184314386,38.15322554982471,191.208783373124,1.8501616294278,-4.85602729764169,0.0330891185001291,1.19077304845408,5.5125825782675,293.215295204239
217.02662100000003,55.08201874034931,38.15322397933576,191.20892584455,1.87196020386575,-4.8856921973136,0.0071235713008377,1.15535687795325,5.48536770535963,293.240802653093
217.04662,55.08201905598489,38.15322237561915,191.208621844774,1.88295649796212,-4.92188334897505,-0.0151999888004183,1.1533331699405,5.45642060414156,293.268416075139
217.065042,55.08201939174617,38.15322066878167,191.207878220253,1.88931778122889,-4.95031222744809,-0.037181226049654,1.22779603922717,5.43521956392679,293.288945124414
217.087246,55.082019702863576,38.15321908471185,191.206868543969,1.92078014133544,-4.98483659783108,-0.0504838142006747,1.17042721440752,5.38013787101668,293.303910975421
217.10675000000003,55.08202001550412,38.1532174895456,191.205628403191,1.94110295716064,-5.0228459364475,-0.0620070388990257,1.16182291954362,5.32599532843272,293.320859562123
217.1266,55.082020334687456,38.15321586019172,191.204341196254,1.9359102411743,-5.0422471534417,-0.0643603468503783,1.09006593352801,5.25018398747676,293.345384616717
217.14660100000003,55.08202065774152,38.15321421403366,191.203271658977,1.96092837113513,-5.07919877662401,-0.0534768638502214,1.15085537516121,5.24560856621055,293.369090105054
217.166611,55.082020982767865,38.15321256459308,191.202686223357,1.98276447961336,-5.11125069672736,-0.0292717809998066,1.08289820215853,5.19285794800222,293.386929300753
217.186604,55.08202130985045,38.15321091524887,191.202841498889,2.00547653753119,-5.15248260752472,0.0077637765997451,1.10913615182716,5.21808832522378,293.402904208001
217.206751,55.08202164287334,38.15320924927112,191.20393502805,2.02454607172841,-5.18111805577778,0.0546764580505509,1.13597508947193,5.22679731388459,293.417970142905
217.226604,55.08202197212354,38.1532076119223,191.205724777258,2.03850802821094,-5.20435159415552,0.0894874604000506,1.11475599302974,5.28057369267065,293.429716967761
217.246602,55.08202230687442,38.15320595190279,191.207929744575,2.0584298926688,-5.24565333185947,0.1102483658499409,1.16871023447928,5.35175530420032,293.442921751867
217.266632,55.08202264398462,38.153204279801095,191.210212912091,2.06611691601157,-5.26755504543804,0.1141583757998887,1.10181329764395,5.39441664826934,293.458198727482
217.286682,55.0820229839218,38.15320258818131,191.21225220632,2.08593555971247,-5.29865441733617,0.101964711448943,1.18458233336221,5.48437366234961,293.469651893086
217.306781,55.08202332587648,38.15320087734223,191.213749513894,2.0955705694602,-5.32584458930005,0.0748653786999398,1.12167949763232,5.53600069259993,293.478526960778
217.32640300000003,55.08202365961036,38.15319920241705,191.214581882962,2.1217704772934,-5.37416602503978,0.0416184534003605,1.15267900749101,5.62693807729182,293.491962585102
217.346628,55.08202401087783,38.15319744015861,191.214756760302,2.12823449634815,-5.40577158219527,0.00874386700076,1.15604537487738,5.66526996186377,293.498991251985
217.36728600000004,55.082024372613695,38.153195632500434,191.214162880035,2.14354073616132,-5.428383549707,-0.0296940133509338,1.12096101188118,5.70575561578908,293.503147511893
217.387222,55.08202472682332,38.15319387532728,191.212808382988,2.15715041650908,-5.45095821030921,-0.0677248523501816,1.18201174366418,5.75905568823551,293.513392297308
217.406749,55.08202508119302,38.15319213376775,191.210731594533,2.16261165943492,-5.49153529442335,-0.1038394227492744,1.19198667140183,5.7539708343663,293.52123448473
217.426606,55.08202544465738,38.15319036040327,191.208123423401,2.17791697341421,-5.53318123217768,-0.1304085566005142,1.15839763656737,5.71415729003644,293.527314202721
217.44660300000004,55.08202581503977,38.15318856046856,191.205297531947,2.19295660676024,-5.55563078439223,-0.141294572699735,1.18910494164761,5.6896228158061,293.530439175919
217.46660000000003,55.08202618762603,38.153186751152525,191.202603078064,2.20570558290951,-5.58672262739541,-0.1347226941504686,1.20201608668786,5.65778842258076,293.529613384715
217.486605,55.082026561206646,38.15318493250015,191.200365839201,2.21538382202401,-5.6018175938805,-0.1118619431494494,1.10800472828556,5.5983128853498,293.53256127912
217.506747,55.0820269383771,38.15318308691669,191.198853130276,2.24536424648626,-5.64126900424315,-0.0756354462495778,1.18625854655001,5.58002822407185,293.539400758159
217.526406,55.08202730178154,38.15318130027282,191.198125486267,2.25451813138304,-5.6805408370978,-0.0363822004501912,1.11529237872077,5.52883220744755,293.544173176462
217.546622,55.08202768046143,38.15317943214725,191.198065948036,2.26188937124358,-5.70613736685624,-0.0029769115499789,1.16163918391866,5.50737084291987,293.546553731454
217.566619,55.08202805368184,38.153177587007086,191.198639157604,2.27084498359218,-5.73738953671536,0.0286604783994448,1.14153017714718,5.47449858508962,293.548331823508
217.58662200000003,55.082028427794405,38.15317573596214,191.199775002021,2.28493927337647,-5.77251217920985,0.0567922208503546,1.13086060333183,5.4672912454478,293.548690251793
217.606742,55.08202880583975,38.15317386632763,191.201412522186,2.30792779891663,-5.82534599229427,0.0818760082495373,1.1989787069404,5.49925311497943,293.551190436663
217.626628,55.082029180274375,38.15317201739557,191.203386394508,2.3165526718627,-5.84697464396579,0.0986936160998652,1.08201239615796,5.49176947383932,293.557427336303
217.646618,55.0820295600088,38.153170147018166,191.205594208236,2.32888280248288,-5.8788634017252,0.1103906864003079,1.21598914902491,5.57479364725519,293.560310290052
217.66724800000003,55.082029954726416,38.15316820974009,191.207949738662,2.33657307957876,-5.91974684330638,0.1177765213000725,1.18060878278603,5.61864701601969,293.557363679388
217.68721600000003,55.08203034218001,38.15316631664995,191.210170547864,2.35702528388851,-5.95160862920776,0.111040460100753,1.2064774536379,5.67741094158385,293.56202473294
217.706732,55.082030727027686,38.15316444549848,191.212149006329,2.36788653438634,-5.9837345489155,0.0989229232501998,1.26625672503225,5.72558940551063,293.571655766793
217.726712,55.08203112504576,38.15316251741947,191.213826972671,2.37171305313572,-6.0177291586191,0.0838983170993401,1.24269803249722,5.74187061413486,293.575545588519
217.746602,55.08203152350399,38.15316059103881,191.215007190368,2.39600068548375,-6.0535184600488,0.0590108848498971,1.29521705719706,5.77205041558768,293.575298170969
217.76660200000003,55.08203192966867,38.153158628008406,191.215570521456,2.40734829083833,-6.07562000025373,0.0281665543994336,1.32196283187578,5.76477471872401,293.57686208223
217.786602,55.082032337955305,38.153156652102425,191.215360841433,2.41661845600854,-6.11959660291909,-0.0104840011488249,1.35781614638359,5.75998301798022,293.575677218069
217.80674800000003,55.082032753363,38.1531546365614,191.214289809966,2.4378928152321,-6.13380311788074,-0.0535515733503189,1.3778802689648,5.71134254269406,293.572103171127
217.826619,55.08203316332742,38.15315264376784,191.212673429368,2.46284117112235,-6.1756121489733,-0.0808190298997146,1.42782711125742,5.67879064328331,293.571407330818
217.84661900000003,55.08203357973934,38.15315061858704,191.210860843667,2.46016149418851,-6.21338414269861,-0.0906292850501699,1.45138048505758,5.6211192215218,293.573649923631
217.866622,55.082033998624254,38.1531485829505,191.209255480253,2.46900760976304,-6.24595795806707,-0.0802681707000374,1.4762712690394,5.54526428089598,293.571906120535
217.886616,55.08203441975751,38.153146540571214,191.208247509249,2.49172823441176,-6.28393070049348,-0.0503985502007253,1.49005247367592,5.45837246238016,293.571363600305
217.906744,55.082034847174974,38.15314447376342,191.208152842828,2.50926498121655,-6.30778190258913,-0.0047333210488886,1.5010439517392,5.36591460023965,293.570347486113
217.926033,55.08203531450388,38.15314221787245,191.208998075017,2.52385311038482,-6.35670867730007,0.0422616094496675,1.53726182943838,5.32338602474025,293.568106755707
217.944994,55.082035664433896,38.1531405284346,191.210111144205,2.54747658439277,-6.38567085768607,0.0556534593997071,1.55979560632204,5.27325909806697,293.565638620444
217.96660000000003,55.08203612356183,38.15313830763581,191.211977980673,2.55349630376839,-6.41680251871002,0.0933418233998395,1.59285575796904,5.23371843018739,293.57002679608
217.986609,55.0820365518114,38.153136228165536,191.213924177722,2.56904649177064,-6.47793878488691,0.0973098524497118,1.61363894549886,5.2017046360607,293.576497472967
218.00675,55.08203698312589,38.15313412317331,191.215892080596,2.58227583656161,-6.50019825591678,0.0983951437007135,1.57941502744824,5.15778546709912,293.584159172394
218.02659800000004,55.08203740850288,38.15313203981832,191.217785280456,2.6034951317375,-6.52398765152532,0.0946599930003344,1.58965075031995,5.16993828175205,293.591951351977
218.046603,55.08203783909017,38.15312992859169,191.219640174364,2.6228616871202,-6.56230047423541,0.0927446953994604,1.61082652103884,5.18984450838397,293.601852481173
218.066601,55.082038272199,38.15312780767084,191.221430895167,2.63536560011575,-6.59147580046681,0.0895360401500511,1.55483460078592,5.18209994677138,293.609840112141
218.086597,55.08203870925865,38.15312567508532,191.223149926705,2.64145151917138,-6.64415027768429,0.0859515768993901,1.67211544646565,5.25169998186276,293.620699166615
218.106497,55.08203914950062,38.15312353829543,191.224785719376,2.65904452266452,-6.67172642883329,0.0817896335504997,1.56482671261352,5.20466344447837,293.628971485977
218.12662,55.082039597052685,38.15312137451773,191.226366669382,2.66612928156951,-6.70861880447497,0.0790475003000779,1.5744958277683,5.23593451032088,293.637265063251
218.146684,55.082040048248416,38.15311919659875,191.227899797376,2.67490288876381,-6.73456088054762,0.0766563997004254,1.61669073822272,5.23165487957518,293.639454678128
218.16663,55.082040498202254,38.153117023168384,191.229389739985,2.68785111052097,-6.77064289240697,0.0744971304499131,1.62540520675999,5.22409750680426,293.648757069098
218.186625,55.08204095060062,38.15311483153148,191.230869504175,2.71087513125308,-6.81211200047806,0.0739882094990207,1.63698561367069,5.24386570989356,293.661282300585
218.20651100000003,55.08204140274928,38.15311263096044,191.232336541148,2.72680739199512,-6.8420207660272,0.0733518486498496,1.59782561719091,5.21039625857599,293.667360004634
218.227239,55.08204187238956,38.15311033673476,191.233775865025,2.73457268452596,-6.88062002929311,0.0719661938504145,1.60054498511971,5.18229507324837,293.674743787736
218.24692600000003,55.082042322669984,38.153108132917744,191.234983849663,2.74175626938038,-6.91691551521321,0.0603992319000212,1.59615744038538,5.17150363071883,293.684242261422
218.266611,55.08204277425509,38.15310592247963,191.235939182498,2.75250158387165,-6.95311353445063,0.047766641749547,1.56215896340961,5.14970982486792,293.693730719057
218.28659500000003,55.08204323510378,38.15310367030848,191.236563915824,2.76987211278731,-6.98558851336986,0.0312366663010266,1.62342253636301,5.15788779780714,293.702925274294
218.306751,55.082043703156096,38.15310139001139,191.236790380239,2.79197472605324,-7.02688462232777,0.0113232207496594,1.57260884577719,5.14309971520938,293.715315905193
218.326594,55.082044166678834,38.15309913928071,191.23676498404,2.8024270324863,-7.07403756011419,-0.0012698099496333,1.56188960559296,5.16047342841357,293.729233608443
218.346601,55.08204463708475,38.153096862320425,191.2367035062,2.82247883035466,-7.11131503821167,-0.0030738920003159,1.64247673270345,5.18931150490759,293.735910743313
218.366628,55.08204511190863,38.15309457089518,191.236820550637,2.84141966808468,-7.13890250615369,0.0058522218495227,1.55502384797143,5.20064504923719,293.746379134531
218.386621,55.08204558735542,38.15309228301231,191.237328776607,2.8538039925798,-7.18581558274868,0.0254112985004439,1.65274703215262,5.25196014660993,293.76039691421
218.40677900000003,55.08204607146248,38.15308995955597,191.238401322516,2.85882384123303,-7.22068566406506,0.0536272954505534,1.59935658892805,5.27058802363425,293.769119634021
218.42640900000004,55.082046541678345,38.15308770702311,191.239840645887,2.89201330456179,-7.25964839717236,0.0719661685494088,1.63999790174117,5.32618764100268,293.777941205589
218.446622,55.082047033726646,38.15308535234293,191.241527660336,2.89805250337739,-7.28497007230188,0.0843507224502104,1.58810472277792,5.34551635363235,293.788198774168
218.466615,55.08204752140838,38.15308301902032,191.243149203232,2.90182384050485,-7.32969813475796,0.0810771448001901,1.65072857906818,5.41000409207292,293.798890086232
218.486621,55.08204801215487,38.15308066953016,191.244500857001,2.92178633835589,-7.36427111809618,0.0675826884489083,1.64128326836242,5.46589910470986,293.80913183457
218.506748,55.0820485097929,38.15307828400716,191.245391663087,2.94844945776823,-7.39515708489953,0.0445403043002556,1.6705110682595,5.52236704665465,293.818020297201
218.52724,55.08204901651522,38.15307585271249,191.245792828826,2.96168649807682,-7.44935900228091,0.0200582869510412,1.75341476727571,5.57268688941066,293.821420780886
218.547211,55.082049514746885,38.15307346160542,191.245739125346,2.98152772863631,-7.4768797635345,-0.0026851740003053,1.66124502624775,5.60000389726746,293.823990018117
218.566386,55.08204999707708,38.15307114776522,191.245309231533,2.99755134324057,-7.51562475943924,-0.0214946906496038,1.72428539319674,5.62745176335534,293.82971033473
218.58659900000004,55.08205051200537,38.1530686801216,191.244488313443,3.00581307205954,-7.55293858777522,-0.0410459045014022,1.7377532764005,5.63948204029887,293.834165577433
218.60672900000003,55.08205102618359,38.15306621980009,191.24336045511,3.01639527091725,-7.58842710724344,-0.0563929166489174,1.73594479879973,5.61594718926394,293.837783541
218.62660900000003,55.08205153612565,38.15306378213218,191.242080964029,3.03815323649038,-7.62345260575291,-0.0639745540510716,1.75429240836985,5.60799666960011,293.843786148249
218.646597,55.08205205210996,38.15306131597297,191.240788977151,3.06179343421142,-7.65180904225721,-0.0645993438993741,1.7364778445599,5.58931056597585,293.848099155502
218.6666,55.08205257092989,38.15305883466408,191.23965610611,3.06970874625817,-7.69906420086405,-0.0566435520497066,1.72410229495768,5.57694651961701,293.855828225143
218.686622,55.082053091492185,38.15305634142757,191.238849888166,3.07950115510082,-7.73710945275364,-0.0403108972008681,1.76401780233417,5.57742758349947,293.866325755901
218.706753,55.08205361668151,38.15305382069586,191.238510127864,3.08786432311829,-7.77419287801665,-0.016988015099173,1.70734990856331,5.55189187809143,293.87179279308
218.726756,55.08205413809379,38.15305131279805,191.238641439577,3.11082527064721,-7.82420688311787,0.0065655856502644,1.77061572877216,5.56526998941396,293.879258874682
218.746619,55.08205465622777,38.15304881598229,191.239188054062,3.13153675267622,-7.85303992287769,0.0273307242494524,1.67815180353415,5.53321304234011,293.887898872053
218.766616,55.082055179597226,38.15304628974239,191.240114373166,3.13373310829776,-7.89814354114778,0.046315955199816,1.70211847004165,5.56207745104688,293.897844278635
218.785046,55.08205573171774,38.1530436207595,191.241447209683,3.14614515441156,-7.94764581210387,0.0666418258504109,1.78823894227442,5.60541822065573,293.907828882571
218.807395,55.08205625337897,38.15304109640273,191.24298508327,3.15383852703367,-7.9816733092465,0.0768936793505759,1.7563110181876,5.62995593391273,293.921028304502
218.82660300000003,55.08205675878287,38.15303865166344,191.244647101325,3.17279147367862,-8.02296719466085,0.0831009027493223,1.71736906373335,5.63504660701404,293.937671399938
218.84659600000003,55.08205729115772,38.15303608164481,191.246480955768,3.17709760855806,-8.0525437030544,0.0916927221496166,1.77616415889191,5.67781196067312,293.959546129698
218.866597,55.08205782786023,38.15303350028648,191.248314554722,3.18757094686355,-8.10162101298876,0.0916799476996743,1.73236880986283,5.7250344497341,293.97969184522
218.88660400000003,55.08205837057617,38.15303090381714,191.250052534195,3.21714299165319,-8.15189956341119,0.0868989736503067,1.75085644056812,5.77009372730961,293.996631073515
218.90672,55.08205892416438,38.15302827192886,191.251613037627,3.23559792342531,-8.17260332021178,0.0780251716008706,1.67558045053868,5.78879096438284,294.020910571479
218.926347,55.08205946555375,38.1530257084805,191.252878725841,3.24234385741292,-8.22892430660057,0.0632844106988272,1.73476468307208,5.83228939764232,294.048842847798
218.946002,55.082060093534224,38.153022737740166,191.253968826121,3.23794539200328,-8.26794119599416,0.0545050140004832,1.67044312595834,5.82044554771568,294.071952604998
218.96659800000003,55.08206059394743,38.15302036527642,191.254504105201,3.25047970706741,-8.30371591270744,0.0267639539998754,1.70082030239688,5.80912419407576,294.093734096816
218.986623,55.08206115541736,38.15301769021067,191.254704369374,3.26739535339594,-8.33828552553318,0.0100132086501503,1.74036349509914,5.79560219226915,294.115870657241
